[{"id":"acs-alaska-oregon-network-akorn","name":"ACS Alaska-Oregon Network (AKORN)","cable_id":1571,"landing_points":[{"landing_point_id":4067,"id":"anchorage-ak-united-states","name":"Anchorage, AK, United States","latlon":"61.217461,-149.858369","url":"#/landing-point/anchorage-ak-united-states"},{"landing_point_id":8539,"id":"florence-or-united-states","name":"Florence, OR, United States","latlon":"43.982130,-124.099837","url":"#/landing-point/florence-or-united-states"},{"landing_point_id":8392,"id":"homer-ak-united-states","name":"Homer, AK, United States","latlon":"59.646368,-151.544306","url":"#/landing-point/homer-ak-united-states"},{"landing_point_id":8540,"id":"nikiski-ak-united-states","name":"Nikiski, AK, United States","latlon":"60.689824,-151.291718","url":"#/landing-point/nikiski-ak-united-states"}],"length":"3,000 km","rfs":"2009 April","owners":"Alaska Communications","url":"https://www.alaskacommunications.com","notes":null}
,{"id":"aden-djibouti","name":"Aden-Djibouti","cable_id":1307,"landing_points":[{"landing_point_id":5969,"id":"aden-yemen","name":"Aden, Yemen","latlon":"12.800687,45.033530","url":"#/landing-point/aden-yemen"},{"landing_point_id":4177,"id":"djibouti-city-djibouti","name":"Djibouti City, Djibouti","latlon":"11.594682,43.147984","url":"#/landing-point/djibouti-city-djibouti"}],"length":"269 km","rfs":"1994","owners":"Djibouti Telecom,  TeleYemen,  Tata Communications,  Orange,  Telecom Italia Sparkle","url":"http://www.teleyemen.com.ye","notes":null}
,{"id":"adria-1","name":"Adria-1","cable_id":1317,"landing_points":[{"landing_point_id":6024,"id":"corfu-greece","name":"Corfu, Greece","latlon":"39.619302,19.919492","url":"#/landing-point/corfu-greece"},{"landing_point_id":6043,"id":"dubrovnik-croatia","name":"Dubrovnik, Croatia","latlon":"42.641859,18.106406","url":"#/landing-point/dubrovnik-croatia"},{"landing_point_id":6025,"id":"durres-albania","name":"Durres, Albania","latlon":"41.316689,19.450058","url":"#/landing-point/durres-albania"}],"length":"440 km","rfs":"1996 September","owners":"T-Hrvatski Telekom,  Albania Telecom","url":null,"notes":null}
,{"id":"aeconnect-1","name":"AEConnect-1","cable_id":1691,"landing_points":[{"landing_point_id":14732,"id":"killala-ireland","name":"Killala, Ireland","latlon":"54.206832,-9.232191","url":"#/landing-point/killala-ireland"},{"landing_point_id":3783,"id":"shirley-ny-united-states","name":"Shirley, NY, United States","latlon":"40.800283,-72.872237","url":"#/landing-point/shirley-ny-united-states"}],"length":"5,536 km","rfs":"2016 January","owners":"Aqua Comms","url":"http://www.aquacomms.com","notes":null}
,{"id":"africa-coast-to-europe-ace","name":"Africa Coast to Europe (ACE)","cable_id":1629,"landing_points":[{"landing_point_id":3316,"id":"abidjan-cte-divoire","name":"Abidjan, Côte d'Ivoire","latlon":"5.323518,-4.026237","url":"#/landing-point/abidjan-cte-divoire"},{"landing_point_id":4181,"id":"accra-ghana","name":"Accra, Ghana","latlon":"5.558283,-0.201092","url":"#/landing-point/accra-ghana"},{"landing_point_id":4348,"id":"banjul-gambia","name":"Banjul, Gambia","latlon":"13.455948,-16.581358","url":"#/landing-point/banjul-gambia"},{"landing_point_id":9434,"id":"bata-equatorial-guinea","name":"Bata, Equatorial Guinea","latlon":"1.860067,9.768227","url":"#/landing-point/bata-equatorial-guinea"},{"landing_point_id":14331,"id":"carcavelos-portugal","name":"Carcavelos, Portugal","latlon":"38.690165,-9.331557","url":"#/landing-point/carcavelos-portugal"},{"landing_point_id":4208,"id":"conakry-guinea","name":"Conakry, Guinea","latlon":"9.513628,-13.703820","url":"#/landing-point/conakry-guinea"},{"landing_point_id":3315,"id":"cotonou-benin","name":"Cotonou, Benin","latlon":"6.356574,2.439922","url":"#/landing-point/cotonou-benin"},{"landing_point_id":4180,"id":"dakar-senegal","name":"Dakar, Senegal","latlon":"14.686599,-17.451914","url":"#/landing-point/dakar-senegal"},{"landing_point_id":17037,"id":"duynefontein-south-africa","name":"Duynefontein, South Africa","latlon":"-33.693309,18.449912","url":"#/landing-point/duynefontein-south-africa"},{"landing_point_id":4212,"id":"freetown-sierra-leone","name":"Freetown, Sierra Leone","latlon":"8.485333,-13.238098","url":"#/landing-point/freetown-sierra-leone"},{"landing_point_id":17556,"id":"granadilla-canary-islands-spain","name":"Granadilla, Canary Islands, Spain","latlon":"28.059115,-16.518052","url":"#/landing-point/granadilla-canary-islands-spain"},{"landing_point_id":10095,"id":"kribi-cameroon","name":"Kribi, Cameroon","latlon":"2.932918,9.910414","url":"#/landing-point/kribi-cameroon"},{"landing_point_id":3280,"id":"lagos-nigeria","name":"Lagos, Nigeria","latlon":"6.438874,3.423210","url":"#/landing-point/lagos-nigeria"},{"landing_point_id":4221,"id":"libreville-gabon","name":"Libreville, Gabon","latlon":"0.394272,9.454360","url":"#/landing-point/libreville-gabon"},{"landing_point_id":4190,"id":"luanda-angola","name":"Luanda, Angola","latlon":"-8.812852,13.235022","url":"#/landing-point/luanda-angola"},{"landing_point_id":4178,"id":"monrovia-liberia","name":"Monrovia, Liberia","latlon":"6.300080,-10.797181","url":"#/landing-point/monrovia-liberia"},{"landing_point_id":9426,"id":"muanda-congo-dem-rep-","name":"Muanda, Congo, Dem. Rep.","latlon":"-5.933362,12.349866","url":"#/landing-point/muanda-congo-dem-rep-"},{"landing_point_id":4192,"id":"nouakchott-mauritania","name":"Nouakchott, Mauritania","latlon":"18.083876,-15.978282","url":"#/landing-point/nouakchott-mauritania"},{"landing_point_id":3119,"id":"penmarch-france","name":"Penmarch, France","latlon":"47.811315,-4.338688","url":"#/landing-point/penmarch-france"},{"landing_point_id":4263,"id":"sao-tome-sao-tome-and-principe","name":"Sao Tome, Sao Tome and Principe","latlon":"0.333286,6.733292","url":"#/landing-point/sao-tome-sao-tome-and-principe"},{"landing_point_id":17036,"id":"suro-guinea-bissau","name":"Suro, Guinea-Bissau","latlon":"11.774125,-15.791148","url":"#/landing-point/suro-guinea-bissau"},{"landing_point_id":9845,"id":"swakopmund-namibia","name":"Swakopmund, Namibia","latlon":"-22.678324,14.528088","url":"#/landing-point/swakopmund-namibia"}],"length":"17,000 km","rfs":"2012 December","owners":"Orange,  Dolphin Telecom,  Cote d’Ivoire Telecom,  Gambia Submarine Cable Company,  MTN,  Orange Cameroun,  Sonatel,  Cable Consortium of Liberia,  STP Cabo,  International Mauritania Telecom,  Canalink,  Orange Mali,  Orange Niger,  Republic of Equatorial Guinea,  Sierra Leone Cable Company,  GUILAB,  Benin ACE GIE,  Republic of Gabon,  Republic of Guinea Bissau,  Republic of Cameroon","url":"https://ace-submarinecable.com/","notes":"The Guinea-Bissau landing, Cameroon landing, and all landings south of Sao Tome are planned."}
,{"id":"alaska-united-east-au-east","name":"Alaska United East (AU-East)","cable_id":1168,"landing_points":[{"landing_point_id":4816,"id":"juneau-ak-united-states","name":"Juneau, AK, United States","latlon":"58.299506,-134.406863","url":"#/landing-point/juneau-ak-united-states"},{"landing_point_id":5770,"id":"lynnwood-wa-united-states","name":"Lynnwood, WA, United States","latlon":"47.823998,-122.315853","url":"#/landing-point/lynnwood-wa-united-states"},{"landing_point_id":5764,"id":"valdez-ak-united-states","name":"Valdez, AK, United States","latlon":"61.130352,-146.353342","url":"#/landing-point/valdez-ak-united-states"},{"landing_point_id":6255,"id":"whittier-ak-united-states","name":"Whittier, AK, United States","latlon":"60.772930,-148.684737","url":"#/landing-point/whittier-ak-united-states"}],"length":"3,751 km","rfs":"1999 February","owners":"GCI","url":"https://www.gci.com/","notes":null}
,{"id":"alaska-united-southeast-au-se","name":"Alaska United Southeast (AU-SE)","cable_id":1567,"landing_points":[{"landing_point_id":8553,"id":"angoon-ak-united-states","name":"Angoon, AK, United States","latlon":"57.501838,-134.582254","url":"#/landing-point/angoon-ak-united-states"},{"landing_point_id":8552,"id":"hawk-inlet-ak-united-states","name":"Hawk Inlet, AK, United States","latlon":"58.128107,-134.741824","url":"#/landing-point/hawk-inlet-ak-united-states"},{"landing_point_id":8550,"id":"petersburg-ak-united-states","name":"Petersburg, AK, United States","latlon":"56.807612,-132.970047","url":"#/landing-point/petersburg-ak-united-states"},{"landing_point_id":8554,"id":"sitka-ak-united-states","name":"Sitka, AK, United States","latlon":"57.052912,-135.334402","url":"#/landing-point/sitka-ak-united-states"},{"landing_point_id":8549,"id":"wrangell-ak-united-states","name":"Wrangell, AK, United States","latlon":"56.470796,-132.383817","url":"#/landing-point/wrangell-ak-united-states"}],"length":"626 km","rfs":"2008 November","owners":"GCI","url":"https://www.gci.com/","notes":null}
,{"id":"alaska-united-turnagain-arm-auta","name":"Alaska United Turnagain Arm (AUTA)","cable_id":1813,"landing_points":[{"landing_point_id":15023,"id":"mchugh-point-ak-united-states","name":"McHugh Point, AK, United States","latlon":"61.015715,-149.732198","url":"#/landing-point/mchugh-point-ak-united-states"},{"landing_point_id":15022,"id":"portage-ak-united-states","name":"Portage, AK, United States","latlon":"60.828289,-148.989815","url":"#/landing-point/portage-ak-united-states"}],"length":"53 km","rfs":"2012","owners":"GCI","url":"https://www.gci.com/","notes":null}
,{"id":"alaska-united-west-au-west","name":"Alaska United West (AU-West)","cable_id":1348,"landing_points":[{"landing_point_id":5755,"id":"seward-ak-united-states","name":"Seward, AK, United States","latlon":"60.112188,-149.443135","url":"#/landing-point/seward-ak-united-states"},{"landing_point_id":6191,"id":"warrenton-or-united-states","name":"Warrenton, OR, United States","latlon":"46.165124,-123.923860","url":"#/landing-point/warrenton-or-united-states"}],"length":"2,485 km","rfs":"2004 June","owners":"GCI","url":"https://www.gci.com/","notes":null}
,{"id":"alba-1","name":"ALBA-1","cable_id":1529,"landing_points":[{"landing_point_id":8352,"id":"la-guaira-venezuela","name":"La Guaira, Venezuela","latlon":"10.603154,-66.889622","url":"#/landing-point/la-guaira-venezuela"},{"landing_point_id":7688,"id":"ocho-rios-jamaica","name":"Ocho Rios, Jamaica","latlon":"18.398560,-77.103192","url":"#/landing-point/ocho-rios-jamaica"},{"landing_point_id":14733,"id":"santiago-de-cuba-cuba","name":"Santiago de Cuba, Cuba","latlon":"20.028796,-75.828974","url":"#/landing-point/santiago-de-cuba-cuba"},{"landing_point_id":8351,"id":"siboney-cuba","name":"Siboney, Cuba","latlon":"19.963635,-75.712372","url":"#/landing-point/siboney-cuba"}],"length":"1,860 km","rfs":"2012 August","owners":"Transbit,  Telecom Venezuela","url":null,"notes":null}
,{"id":"aletar","name":"Aletar","cable_id":1319,"landing_points":[{"landing_point_id":6044,"id":"alexandria-egypt","name":"Alexandria, Egypt","latlon":"31.191889,29.889787","url":"#/landing-point/alexandria-egypt"},{"landing_point_id":6030,"id":"tartous-syria","name":"Tartous, Syria","latlon":"34.891704,35.897792","url":"#/landing-point/tartous-syria"}],"length":"787 km","rfs":"1997 April","owners":"Syrian Telecommunications Establishment,  Telecom Egypt,  Liban Telecom","url":null,"notes":null}
,{"id":"alonso-de-ojeda","name":"Alonso de Ojeda","cable_id":1289,"landing_points":[{"landing_point_id":5776,"id":"baby-beach-aruba","name":"Baby Beach, Aruba","latlon":"12.414139,-69.878683","url":"#/landing-point/baby-beach-aruba"},{"landing_point_id":10729,"id":"willemstad-curaao","name":"Willemstad, Curaçao","latlon":"12.095316,-68.896604","url":"#/landing-point/willemstad-curaao"}],"length":"128 km","rfs":"1999","owners":"n.a.","url":null,"notes":null}
,{"id":"alpal-2","name":"ALPAL-2","cable_id":1234,"landing_points":[{"landing_point_id":5774,"id":"el-djamila-algeria","name":"El Djamila, Algeria","latlon":"36.800224,2.901445","url":"#/landing-point/el-djamila-algeria"},{"landing_point_id":5948,"id":"ses-covetes-spain","name":"Ses Covetes, Spain","latlon":"39.354544,2.970964","url":"#/landing-point/ses-covetes-spain"}],"length":"312 km","rfs":"2002 July","owners":"Telecom Italia Sparkle,  Orange,  Algerie Telecom,  Telxius","url":null,"notes":null}
,{"id":"america-movil-submarine-cable-system-1-amx-1","name":"America Movil Submarine Cable System-1 (AMX-1)","cable_id":1686,"landing_points":[{"landing_point_id":4315,"id":"barranquilla-colombia","name":"Barranquilla, Colombia","latlon":"10.940459,-74.779755","url":"#/landing-point/barranquilla-colombia"},{"landing_point_id":3842,"id":"cancn-mexico","name":"Cancún, Mexico","latlon":"21.095727,-86.767555","url":"#/landing-point/cancn-mexico"},{"landing_point_id":5693,"id":"cartagena-colombia","name":"Cartagena, Colombia","latlon":"10.386699,-75.505683","url":"#/landing-point/cartagena-colombia"},{"landing_point_id":3347,"id":"fortaleza-brazil","name":"Fortaleza, Brazil","latlon":"-3.718836,-38.542968","url":"#/landing-point/fortaleza-brazil"},{"landing_point_id":3650,"id":"hollywood-fl-united-states","name":"Hollywood, FL, United States","latlon":"26.010202,-80.160234","url":"#/landing-point/hollywood-fl-united-states"},{"landing_point_id":3655,"id":"jacksonville-fl-united-states","name":"Jacksonville, FL, United States","latlon":"30.331758,-81.655741","url":"#/landing-point/jacksonville-fl-united-states"},{"landing_point_id":5848,"id":"puerto-barrios-guatemala","name":"Puerto Barrios, Guatemala","latlon":"15.727138,-88.597241","url":"#/landing-point/puerto-barrios-guatemala"},{"landing_point_id":5823,"id":"puerto-plata-dominican-republic","name":"Puerto Plata, Dominican Republic","latlon":"19.799341,-70.691232","url":"#/landing-point/puerto-plata-dominican-republic"},{"landing_point_id":3242,"id":"rio-de-janeiro-brazil","name":"Rio de Janeiro, Brazil","latlon":"-22.903397,-43.209568","url":"#/landing-point/rio-de-janeiro-brazil"},{"landing_point_id":3342,"id":"salvador-brazil","name":"Salvador, Brazil","latlon":"-12.969979,-38.504638","url":"#/landing-point/salvador-brazil"},{"landing_point_id":4262,"id":"san-juan-pr-united-states","name":"San Juan, PR, United States","latlon":"18.465833,-66.106664","url":"#/landing-point/san-juan-pr-united-states"}],"length":"17,800 km","rfs":"2014","owners":"América Móvil","url":"http://www.americamovil.com","notes":null}
,{"id":"america-movil-telxius-west-coast-cable","name":"America Movil-Telxius West Coast Cable","cable_id":2054,"landing_points":[{"landing_point_id":5800,"id":"arica-chile","name":"Arica, Chile","latlon":"-18.473370,-70.306747","url":"#/landing-point/arica-chile"},{"landing_point_id":5930,"id":"lurin-peru","name":"Lurin, Peru","latlon":"-12.278525,-76.874286","url":"#/landing-point/lurin-peru"},{"landing_point_id":5849,"id":"puerto-san-jose-guatemala","name":"Puerto San Jose, Guatemala","latlon":"13.934610,-90.822216","url":"#/landing-point/puerto-san-jose-guatemala"},{"landing_point_id":9789,"id":"salinas-ecuador","name":"Salinas, Ecuador","latlon":"-2.228481,-81.009061","url":"#/landing-point/salinas-ecuador"},{"landing_point_id":3331,"id":"valparaso-chile","name":"Valparaíso, Chile","latlon":"-33.045531,-71.620309","url":"#/landing-point/valparaso-chile"}],"length":"8,790 km","rfs":"2021 Q1","owners":"América Móvil,  Telxius","url":null,"notes":null}
,{"id":"americas-i-north","name":"Americas-I North","cable_id":1645,"landing_points":[{"landing_point_id":5758,"id":"magens-bay-vi-united-states","name":"Magen’s Bay, VI, United States","latlon":"18.372987,-64.937084","url":"#/landing-point/magens-bay-vi-united-states"},{"landing_point_id":3813,"id":"vero-beach-fl-united-states","name":"Vero Beach, FL, United States","latlon":"27.638388,-80.394267","url":"#/landing-point/vero-beach-fl-united-states"}],"length":"2,012 km","rfs":"1994 September","owners":"n.a.","url":null,"notes":null}
,{"id":"americas-ii","name":"Americas-II","cable_id":1148,"landing_points":[{"landing_point_id":5966,"id":"camuri-venezuela","name":"Camuri, Venezuela","latlon":"10.606108,-66.878294","url":"#/landing-point/camuri-venezuela"},{"landing_point_id":5575,"id":"cayenne-french-guiana","name":"Cayenne, French Guiana","latlon":"4.941365,-52.321075","url":"#/landing-point/cayenne-french-guiana"},{"landing_point_id":3347,"id":"fortaleza-brazil","name":"Fortaleza, Brazil","latlon":"-3.718836,-38.542968","url":"#/landing-point/fortaleza-brazil"},{"landing_point_id":3650,"id":"hollywood-fl-united-states","name":"Hollywood, FL, United States","latlon":"26.010202,-80.160234","url":"#/landing-point/hollywood-fl-united-states"},{"landing_point_id":5905,"id":"le-lamentin-martinique","name":"Le Lamentin, Martinique","latlon":"14.615542,-61.094264","url":"#/landing-point/le-lamentin-martinique"},{"landing_point_id":5762,"id":"miramar-pr-united-states","name":"Miramar, PR, United States","latlon":"18.453419,-66.082884","url":"#/landing-point/miramar-pr-united-states"},{"landing_point_id":4236,"id":"port-of-spain-trinidad-and-tobago","name":"Port of Spain, Trinidad and Tobago","latlon":"10.649785,-61.516676","url":"#/landing-point/port-of-spain-trinidad-and-tobago"},{"landing_point_id":5750,"id":"st-croix-vi-united-states","name":"St. Croix, VI, United States","latlon":"17.771864,-64.819408","url":"#/landing-point/st-croix-vi-united-states"},{"landing_point_id":10729,"id":"willemstad-curaao","name":"Willemstad, Curaçao","latlon":"12.095316,-68.896604","url":"#/landing-point/willemstad-curaao"}],"length":"8,373 km","rfs":"2000 August","owners":"Embratel,  AT&T,  Verizon,  Sprint,  CANTV,  Tata Communications,  CNT,  Orange,  Portugal Telecom,  C&W Networks,  Telecom Italia Sparkle,  CenturyLink","url":null,"notes":null}
,{"id":"amerigo-vespucci","name":"Amerigo Vespucci","cable_id":1494,"landing_points":[{"landing_point_id":14635,"id":"kralendijk-bonaire-netherlands","name":"Kralendijk, Bonaire, Netherlands","latlon":"12.150687,-68.276682","url":"#/landing-point/kralendijk-bonaire-netherlands"},{"landing_point_id":10729,"id":"willemstad-curaao","name":"Willemstad, Curaçao","latlon":"12.095316,-68.896604","url":"#/landing-point/willemstad-curaao"}],"length":"85 km","rfs":"1999","owners":"Antelecom","url":null,"notes":null}
,{"id":"antillas-1","name":"Antillas 1","cable_id":1227,"landing_points":[{"landing_point_id":5773,"id":"isla-verde-pr-united-states","name":"Isla Verde, PR, United States","latlon":"18.441651,-66.016869","url":"#/landing-point/isla-verde-pr-united-states"},{"landing_point_id":5762,"id":"miramar-pr-united-states","name":"Miramar, PR, United States","latlon":"18.453419,-66.082884","url":"#/landing-point/miramar-pr-united-states"},{"landing_point_id":5694,"id":"punta-cana-dominican-republic","name":"Punta Cana, Dominican Republic","latlon":"18.621278,-68.438254","url":"#/landing-point/punta-cana-dominican-republic"},{"landing_point_id":4242,"id":"santo-domingo-dominican-republic","name":"Santo Domingo, Dominican Republic","latlon":"18.500001,-69.983273","url":"#/landing-point/santo-domingo-dominican-republic"}],"length":"650 km","rfs":"1997 June","owners":"AT&T,  Verizon,  Sprint,  Tata Communications,  Orange,  C&W Networks,  Telecom Italia Sparkle,  Embratel","url":null,"notes":null}
,{"id":"apcn-2","name":"APCN-2","cable_id":1049,"landing_points":[{"landing_point_id":3218,"id":"batangas-philippines","name":"Batangas, Philippines","latlon":"13.765555,121.064939","url":"#/landing-point/batangas-philippines"},{"landing_point_id":4183,"id":"busan-south-korea","name":"Busan, South Korea","latlon":"35.170147,128.999310","url":"#/landing-point/busan-south-korea"},{"landing_point_id":5885,"id":"chikura-japan","name":"Chikura, Japan","latlon":"34.976653,139.954652","url":"#/landing-point/chikura-japan"},{"landing_point_id":5802,"id":"chongming-china","name":"Chongming, China","latlon":"31.619880,121.395212","url":"#/landing-point/chongming-china"},{"landing_point_id":5939,"id":"katong-singapore","name":"Katong, Singapore","latlon":"1.309286,103.904693","url":"#/landing-point/katong-singapore"},{"landing_point_id":5703,"id":"kitaibaraki-japan","name":"Kitaibaraki, Japan","latlon":"36.801787,140.750940","url":"#/landing-point/kitaibaraki-japan"},{"landing_point_id":5903,"id":"kuantan-malaysia","name":"Kuantan, Malaysia","latlon":"3.815169,103.322565","url":"#/landing-point/kuantan-malaysia"},{"landing_point_id":5852,"id":"lantau-island-china","name":"Lantau Island, China","latlon":"22.271496,113.948341","url":"#/landing-point/lantau-island-china"},{"landing_point_id":5803,"id":"shantou-china","name":"Shantou, China","latlon":"23.354552,116.675488","url":"#/landing-point/shantou-china"},{"landing_point_id":5982,"id":"tanshui-taiwan","name":"Tanshui, Taiwan","latlon":"25.181357,121.462595","url":"#/landing-point/tanshui-taiwan"}],"length":"19,000 km","rfs":"2001 December","owners":"Singtel,  Verizon,  KDDI,  Chunghwa Telecom,  AT&T,  BT,  Orange,  Softbank Corp,  NTT,  Tata Communications,  Telekom Malaysia,  Starhub,  PLDT,  China Unicom,  KT,  Singtel Optus,  Telstra,  PCCW,  China Telecom,  LG Uplus,  HKBN Enterprise Solutions,  Vodafone","url":null,"notes":null}
,{"id":"aphrodite-2","name":"Aphrodite 2","cable_id":1303,"landing_points":[{"landing_point_id":5723,"id":"chania-greece","name":"Chania, Greece","latlon":"35.511809,24.012165","url":"#/landing-point/chania-greece"},{"landing_point_id":5811,"id":"yeroskipos-cyprus","name":"Yeroskipos, Cyprus","latlon":"34.766411,32.466544","url":"#/landing-point/yeroskipos-cyprus"}],"length":"868 km","rfs":"1994 September","owners":"n.a.","url":null,"notes":null}
,{"id":"apollo","name":"Apollo","cable_id":1213,"landing_points":[{"landing_point_id":4554,"id":"bude-united-kingdom","name":"Bude, United Kingdom","latlon":"50.828110,-4.544401","url":"#/landing-point/bude-united-kingdom"},{"landing_point_id":5837,"id":"lannion-france","name":"Lannion, France","latlon":"48.730260,-3.459928","url":"#/landing-point/lannion-france"},{"landing_point_id":3686,"id":"manasquan-nj-united-states","name":"Manasquan, NJ, United States","latlon":"40.123343,-74.047041","url":"#/landing-point/manasquan-nj-united-states"},{"landing_point_id":3783,"id":"shirley-ny-united-states","name":"Shirley, NY, United States","latlon":"40.800283,-72.872237","url":"#/landing-point/shirley-ny-united-states"}],"length":"13,000 km","rfs":"2003 February","owners":"Vodafone","url":"http://www.vodafone.com/business/article-cs-apollo-submarine-cable-system","notes":null}
,{"id":"aqualink","name":"Aqualink","cable_id":1487,"landing_points":[{"landing_point_id":3319,"id":"auckland-new-zealand","name":"Auckland, New Zealand","latlon":"-36.884421,174.770455","url":"#/landing-point/auckland-new-zealand"},{"landing_point_id":7855,"id":"canterbury-new-zealand","name":"Canterbury, New Zealand","latlon":"-43.494184,171.707371","url":"#/landing-point/canterbury-new-zealand"},{"landing_point_id":7853,"id":"manawatu-wanganui-new-zealand","name":"Manawatu-Wanganui, New Zealand","latlon":"-39.625435,175.618209","url":"#/landing-point/manawatu-wanganui-new-zealand"},{"landing_point_id":7854,"id":"marlborough-new-zealand","name":"Marlborough, New Zealand","latlon":"-41.527241,173.580710","url":"#/landing-point/marlborough-new-zealand"},{"landing_point_id":7852,"id":"taranaki-new-zealand","name":"Taranaki, New Zealand","latlon":"-39.287862,174.371530","url":"#/landing-point/taranaki-new-zealand"},{"landing_point_id":7851,"id":"waikato-new-zealand","name":"Waikato, New Zealand","latlon":"-37.915890,175.534908","url":"#/landing-point/waikato-new-zealand"},{"landing_point_id":4052,"id":"wellington-new-zealand","name":"Wellington, New Zealand","latlon":"-41.280537,174.767135","url":"#/landing-point/wellington-new-zealand"}],"length":"n.a.","rfs":"2001 December","owners":"Telstra","url":null,"notes":null}
,{"id":"arcos","name":"ARCOS","cable_id":1078,"landing_points":[{"landing_point_id":5791,"id":"belize-city-belize","name":"Belize City, Belize","latlon":"17.495546,-88.181617","url":"#/landing-point/belize-city-belize"},{"landing_point_id":5920,"id":"bluefields-nicaragua","name":"Bluefields, Nicaragua","latlon":"11.991776,-83.771462","url":"#/landing-point/bluefields-nicaragua"},{"landing_point_id":3842,"id":"cancn-mexico","name":"Cancún, Mexico","latlon":"21.095727,-86.767555","url":"#/landing-point/cancn-mexico"},{"landing_point_id":5693,"id":"cartagena-colombia","name":"Cartagena, Colombia","latlon":"10.386699,-75.505683","url":"#/landing-point/cartagena-colombia"},{"landing_point_id":5784,"id":"cat-island-bahamas","name":"Cat Island, Bahamas","latlon":"24.403330,-75.525898","url":"#/landing-point/cat-island-bahamas"},{"landing_point_id":5782,"id":"crooked-island-bahamas","name":"Crooked Island, Bahamas","latlon":"22.629711,-74.194990","url":"#/landing-point/crooked-island-bahamas"},{"landing_point_id":5773,"id":"isla-verde-pr-united-states","name":"Isla Verde, PR, United States","latlon":"18.441651,-66.016869","url":"#/landing-point/isla-verde-pr-united-states"},{"landing_point_id":5928,"id":"maria-chiquita-panama","name":"Maria Chiquita, Panama","latlon":"9.437334,-79.753544","url":"#/landing-point/maria-chiquita-panama"},{"landing_point_id":4230,"id":"nassau-bahamas","name":"Nassau, Bahamas","latlon":"25.067039,-77.340252","url":"#/landing-point/nassau-bahamas"},{"landing_point_id":5772,"id":"north-miami-beach-fl-united-states","name":"North Miami Beach, FL, United States","latlon":"25.932944,-80.162382","url":"#/landing-point/north-miami-beach-fl-united-states"},{"landing_point_id":4258,"id":"providenciales-turks-and-caicos-islands","name":"Providenciales, Turks and Caicos Islands","latlon":"21.851098,-72.120235","url":"#/landing-point/providenciales-turks-and-caicos-islands"},{"landing_point_id":5848,"id":"puerto-barrios-guatemala","name":"Puerto Barrios, Guatemala","latlon":"15.727138,-88.597241","url":"#/landing-point/puerto-barrios-guatemala"},{"landing_point_id":5921,"id":"puerto-cabezas-nicaragua","name":"Puerto Cabezas, Nicaragua","latlon":"14.021609,-83.393924","url":"#/landing-point/puerto-cabezas-nicaragua"},{"landing_point_id":5851,"id":"puerto-cortes-honduras","name":"Puerto Cortes, Honduras","latlon":"15.844802,-87.946070","url":"#/landing-point/puerto-cortes-honduras"},{"landing_point_id":5692,"id":"puerto-lempira-honduras","name":"Puerto Lempira, Honduras","latlon":"15.261221,-83.776760","url":"#/landing-point/puerto-lempira-honduras"},{"landing_point_id":5810,"id":"puerto-limon-costa-rica","name":"Puerto Limon, Costa Rica","latlon":"9.988603,-83.037674","url":"#/landing-point/puerto-limon-costa-rica"},{"landing_point_id":5823,"id":"puerto-plata-dominican-republic","name":"Puerto Plata, Dominican Republic","latlon":"19.799341,-70.691232","url":"#/landing-point/puerto-plata-dominican-republic"},{"landing_point_id":5694,"id":"punta-cana-dominican-republic","name":"Punta Cana, Dominican Republic","latlon":"18.621278,-68.438254","url":"#/landing-point/punta-cana-dominican-republic"},{"landing_point_id":5965,"id":"punto-fijo-venezuela","name":"Punto Fijo, Venezuela","latlon":"11.708598,-70.204367","url":"#/landing-point/punto-fijo-venezuela"},{"landing_point_id":5807,"id":"riohacha-colombia","name":"Riohacha, Colombia","latlon":"11.482914,-72.952705","url":"#/landing-point/riohacha-colombia"},{"landing_point_id":5850,"id":"trujillo-honduras","name":"Trujillo, Honduras","latlon":"15.915151,-85.954762","url":"#/landing-point/trujillo-honduras"},{"landing_point_id":5908,"id":"tulum-mexico","name":"Tulum, Mexico","latlon":"20.212549,-87.463599","url":"#/landing-point/tulum-mexico"},{"landing_point_id":10729,"id":"willemstad-curaao","name":"Willemstad, Curaçao","latlon":"12.095316,-68.896604","url":"#/landing-point/willemstad-curaao"}],"length":"8,600 km","rfs":"2001 December","owners":"C&W Networks,  CANTV,  Codetel,  Hondutel,  Belize Telemedia,  Enitel,  AT&T,  Alestra,  Verizon,  RACSA,  United Telecommunication Services (UTS),  Telecarrier,  Tricom USA,  Telecomunicaciones Ultramarinas de Puerto Rico,  Internexa,  Orbinet Overseas,  Telepuerto San Isidro,  Bahamas Telecommunications Company,  Instituto Costarricense de Electricidad,  Orbitel","url":"http://www.cwnetworks.com/","notes":null}
,{"id":"arsat-submarine-fiber-optic-cable","name":"ARSAT Submarine Fiber Optic Cable","cable_id":1871,"landing_points":[{"landing_point_id":16514,"id":"cabo-espiritu-santo-argentina","name":"Cabo Espiritu Santo , Argentina","latlon":"-52.658901,-68.605784","url":"#/landing-point/cabo-espiritu-santo-argentina"},{"landing_point_id":16513,"id":"punta-dungeness-argentina","name":"Punta Dungeness, Argentina","latlon":"-52.390224,-68.419749","url":"#/landing-point/punta-dungeness-argentina"}],"length":"40 km","rfs":"2012 Q2","owners":"ARSAT","url":"http://www.arsat.com.ar/","notes":null}
,{"id":"asia-africa-europe-1-aae-1","name":"Asia Africa Europe-1 (AAE-1)","cable_id":1739,"landing_points":[{"landing_point_id":9485,"id":"abu-talat-egypt","name":"Abu Talat, Egypt","latlon":"31.071845,29.702482","url":"#/landing-point/abu-talat-egypt"},{"landing_point_id":5969,"id":"aden-yemen","name":"Aden, Yemen","latlon":"12.800687,45.033530","url":"#/landing-point/aden-yemen"},{"landing_point_id":15019,"id":"al-bustan-oman","name":"Al Bustan, Oman","latlon":"23.576085,58.606082","url":"#/landing-point/al-bustan-oman"},{"landing_point_id":3160,"id":"bari-italy","name":"Bari, Italy","latlon":"41.125490,16.866661","url":"#/landing-point/bari-italy"},{"landing_point_id":6007,"id":"cape-daguilar-china","name":"Cape D’Aguilar, China","latlon":"22.208031,114.260255","url":"#/landing-point/cape-daguilar-china"},{"landing_point_id":5723,"id":"chania-greece","name":"Chania, Greece","latlon":"35.511809,24.012165","url":"#/landing-point/chania-greece"},{"landing_point_id":4177,"id":"djibouti-city-djibouti","name":"Djibouti City, Djibouti","latlon":"11.594682,43.147984","url":"#/landing-point/djibouti-city-djibouti"},{"landing_point_id":3867,"id":"doha-qatar","name":"Doha, Qatar","latlon":"25.294346,51.519367","url":"#/landing-point/doha-qatar"},{"landing_point_id":5962,"id":"fujairah-united-arab-emirates","name":"Fujairah, United Arab Emirates","latlon":"25.121690,56.333720","url":"#/landing-point/fujairah-united-arab-emirates"},{"landing_point_id":4361,"id":"jeddah-saudi-arabia","name":"Jeddah, Saudi Arabia","latlon":"21.481262,39.182751","url":"#/landing-point/jeddah-saudi-arabia"},{"landing_point_id":3259,"id":"karachi-pakistan","name":"Karachi, Pakistan","latlon":"24.889378,67.028539","url":"#/landing-point/karachi-pakistan"},{"landing_point_id":15018,"id":"kuala-kurau-malaysia","name":"Kuala Kurau, Malaysia","latlon":"5.019465,100.397078","url":"#/landing-point/kuala-kurau-malaysia"},{"landing_point_id":3210,"id":"marseille-france","name":"Marseille, France","latlon":"43.293165,5.372623","url":"#/landing-point/marseille-france"},{"landing_point_id":3212,"id":"mmbai-india","name":"Mmbai, India","latlon":"19.075794,72.875899","url":"#/landing-point/mmbai-india"},{"landing_point_id":14639,"id":"ngwe-saung-myanmar","name":"Ngwe Saung, Myanmar","latlon":"16.858034,94.391221","url":"#/landing-point/ngwe-saung-myanmar"},{"landing_point_id":5956,"id":"satun-thailand","name":"Satun, Thailand","latlon":"6.613214,100.066121","url":"#/landing-point/satun-thailand"},{"landing_point_id":9118,"id":"sihanoukville-cambodia","name":"Sihanoukville, Cambodia","latlon":"10.630009,103.506647","url":"#/landing-point/sihanoukville-cambodia"},{"landing_point_id":4265,"id":"songkhla-thailand","name":"Songkhla, Thailand","latlon":"7.078449,100.596980","url":"#/landing-point/songkhla-thailand"},{"landing_point_id":6013,"id":"vung-tau-vietnam","name":"Vung Tau, Vietnam","latlon":"10.341850,107.079203","url":"#/landing-point/vung-tau-vietnam"},{"landing_point_id":9486,"id":"zafarana-egypt","name":"Zafarana, Egypt","latlon":"29.116683,32.649844","url":"#/landing-point/zafarana-egypt"}],"length":"25,000 km","rfs":"2017 June","owners":"China Unicom,  Telecom Egypt,  Etisalat,  Omantel,  Djibouti Telecom,  OTEGLOBE,  Pakistan Telecommunications Company Ltd.,  PCCW,  Ooredoo,  Mobily,  Viettel Corporation,  TeleYemen,  Retelit,  Reliance Jio Infocom,  VNPT International,  Metfone,  Hyalroute,  TIME dotCom","url":"http://www.aaeone.com","notes":null}
,{"id":"asia-america-gateway-aag-cable-system","name":"Asia-America Gateway (AAG) Cable System","cable_id":1507,"landing_points":[{"landing_point_id":5940,"id":"changi-north-singapore","name":"Changi North, Singapore","latlon":"1.389047,103.987017","url":"#/landing-point/changi-north-singapore"},{"landing_point_id":5754,"id":"keawaula-hi-united-states","name":"Keawaula, HI, United States","latlon":"21.548779,-158.242038","url":"#/landing-point/keawaula-hi-united-states"},{"landing_point_id":10340,"id":"la-union-philippines","name":"La Union, Philippines","latlon":"16.582594,120.389646","url":"#/landing-point/la-union-philippines"},{"landing_point_id":5852,"id":"lantau-island-china","name":"Lantau Island, China","latlon":"22.271496,113.948341","url":"#/landing-point/lantau-island-china"},{"landing_point_id":5902,"id":"mersing-malaysia","name":"Mersing, Malaysia","latlon":"2.295516,103.849908","url":"#/landing-point/mersing-malaysia"},{"landing_point_id":3772,"id":"san-luis-obispo-ca-united-states","name":"San Luis Obispo, CA, United States","latlon":"35.285015,-120.662729","url":"#/landing-point/san-luis-obispo-ca-united-states"},{"landing_point_id":6014,"id":"sriracha-thailand","name":"Sriracha, Thailand","latlon":"13.174369,100.930574","url":"#/landing-point/sriracha-thailand"},{"landing_point_id":3251,"id":"tanguisson-point-gu-united-states","name":"Tanguisson Point, GU, United States","latlon":"13.549100,144.809337","url":"#/landing-point/tanguisson-point-gu-united-states"},{"landing_point_id":5970,"id":"tungku-brunei","name":"Tungku, Brunei","latlon":"4.926374,114.885840","url":"#/landing-point/tungku-brunei"},{"landing_point_id":6013,"id":"vung-tau-vietnam","name":"Vung Tau, Vietnam","latlon":"10.341850,107.079203","url":"#/landing-point/vung-tau-vietnam"}],"length":"20,000 km","rfs":"2009 November","owners":"Telekom Malaysia,  AT&T,  Starhub,  PLDT,  CAT Telecom Public Company Limited,  Airtel (Bharti),  Telstra,  Telkom Indonesia,  BT,  Eastern Telecom,  Indosat Ooredoo,  Spark New Zealand,  Viettel Corporation,  Saigon Postel Corporation,  VNPT International,  BayanTel,  Ezecom,  Unified National Networks (UNN)","url":"http://www.asia-america-gateway.com","notes":null}
,{"id":"asia-pacific-gateway-apg","name":"Asia Pacific Gateway (APG)","cable_id":1617,"landing_points":[{"landing_point_id":4183,"id":"busan-south-korea","name":"Busan, South Korea","latlon":"35.170147,128.999310","url":"#/landing-point/busan-south-korea"},{"landing_point_id":5802,"id":"chongming-china","name":"Chongming, China","latlon":"31.619880,121.395212","url":"#/landing-point/chongming-china"},{"landing_point_id":5986,"id":"danang-vietnam","name":"Danang, Vietnam","latlon":"16.051564,108.214750","url":"#/landing-point/danang-vietnam"},{"landing_point_id":5903,"id":"kuantan-malaysia","name":"Kuantan, Malaysia","latlon":"3.815169,103.322565","url":"#/landing-point/kuantan-malaysia"},{"landing_point_id":5887,"id":"maruyama-japan","name":"Maruyama, Japan","latlon":"35.037517,139.816956","url":"#/landing-point/maruyama-japan"},{"landing_point_id":5804,"id":"nanhui-china","name":"Nanhui, China","latlon":"30.306306,121.191404","url":"#/landing-point/nanhui-china"},{"landing_point_id":5883,"id":"shima-japan","name":"Shima, Japan","latlon":"34.336834,136.874380","url":"#/landing-point/shima-japan"},{"landing_point_id":4265,"id":"songkhla-thailand","name":"Songkhla, Thailand","latlon":"7.078449,100.596980","url":"#/landing-point/songkhla-thailand"},{"landing_point_id":9135,"id":"tanah-merah-singapore","name":"Tanah Merah, Singapore","latlon":"1.327255,103.946588","url":"#/landing-point/tanah-merah-singapore"},{"landing_point_id":5981,"id":"toucheng-taiwan","name":"Toucheng, Taiwan","latlon":"24.863596,121.801462","url":"#/landing-point/toucheng-taiwan"},{"landing_point_id":5857,"id":"tseung-kwan-o-china","name":"Tseung Kwan O, China","latlon":"22.318297,114.258692","url":"#/landing-point/tseung-kwan-o-china"}],"length":"10,400 km","rfs":"2016 November","owners":"NTT,  China Telecom,  China Unicom,  Chunghwa Telecom,  KT,  Starhub,  LG Uplus,  China Mobile,  Viettel Corporation,  VNPT International,  Facebook,  TIME dotCom","url":null,"notes":null}
,{"id":"asia-submarine-cable-express-asecahaya-malaysia","name":"Asia Submarine-cable Express (ASE)/Cahaya Malaysia","cable_id":1679,"landing_points":[{"landing_point_id":5937,"id":"changi-south-singapore","name":"Changi South, Singapore","latlon":"1.389047,103.987017","url":"#/landing-point/changi-south-singapore"},{"landing_point_id":10355,"id":"daet-philippines","name":"Daet, Philippines","latlon":"14.116617,122.949899","url":"#/landing-point/daet-philippines"},{"landing_point_id":17508,"id":"komesu-japan","name":"Komesu, Japan","latlon":"26.087766,127.700800","url":"#/landing-point/komesu-japan"},{"landing_point_id":5887,"id":"maruyama-japan","name":"Maruyama, Japan","latlon":"35.037517,139.816956","url":"#/landing-point/maruyama-japan"},{"landing_point_id":5902,"id":"mersing-malaysia","name":"Mersing, Malaysia","latlon":"2.295516,103.849908","url":"#/landing-point/mersing-malaysia"},{"landing_point_id":5857,"id":"tseung-kwan-o-china","name":"Tseung Kwan O, China","latlon":"22.318297,114.258692","url":"#/landing-point/tseung-kwan-o-china"}],"length":"8,148 km","rfs":"2012 August","owners":"NTT,  PLDT,  Telekom Malaysia,  Starhub","url":"http://www.ase-na.com","notes":"Telekom Malaysia owns two fiber pairs, which it refers to as the Cahaya Malaysia system. NTT, PLDT, and Starhub jointly own the other four fiber pairs."}
,{"id":"atisa","name":"Atisa","cable_id":1874,"landing_points":[{"landing_point_id":5973,"id":"piti-gu-united-states","name":"Piti, GU, United States","latlon":"13.464688,144.694688","url":"#/landing-point/piti-gu-united-states"},{"landing_point_id":16551,"id":"sasanlagu-rota-northern-mariana-islands","name":"Sasanlagu, Rota, Northern Mariana Islands","latlon":"14.144937,145.134337","url":"#/landing-point/sasanlagu-rota-northern-mariana-islands"},{"landing_point_id":16550,"id":"sugar-dock-saipan-northern-mariana-islands","name":"Sugar Dock, Saipan, Northern Mariana Islands","latlon":"15.151809,145.699571","url":"#/landing-point/sugar-dock-saipan-northern-mariana-islands"},{"landing_point_id":16552,"id":"tachognya-beach-tinian-northern-mariana-islands","name":"Tachognya Beach, Tinian, Northern Mariana Islands","latlon":"14.958767,145.629258","url":"#/landing-point/tachognya-beach-tinian-northern-mariana-islands"}],"length":"279 km","rfs":"2017 June","owners":"Docomo Pacific","url":"http://atisa.docomopacific.com","notes":null}
,{"id":"atlantic-crossing-1-ac-1","name":"Atlantic Crossing-1 (AC-1)","cable_id":1143,"landing_points":[{"landing_point_id":3080,"id":"beverwijk-netherlands","name":"Beverwijk, Netherlands","latlon":"52.486313,4.656901","url":"#/landing-point/beverwijk-netherlands"},{"landing_point_id":4512,"id":"brookhaven-ny-united-states","name":"Brookhaven, NY, United States","latlon":"40.773147,-72.912276","url":"#/landing-point/brookhaven-ny-united-states"},{"landing_point_id":3142,"id":"sylt-germany","name":"Sylt, Germany","latlon":"54.898506,8.383364","url":"#/landing-point/sylt-germany"},{"landing_point_id":3081,"id":"whitesands-bay-united-kingdom","name":"Whitesands Bay, United Kingdom","latlon":"50.078514,-5.698453","url":"#/landing-point/whitesands-bay-united-kingdom"}],"length":"14,301 km","rfs":"1998 May","owners":"CenturyLink","url":"http://www.centurylink.com/wholesale/","notes":null}
,{"id":"atlantis-2","name":"Atlantis-2","cable_id":1045,"landing_points":[{"landing_point_id":14331,"id":"carcavelos-portugal","name":"Carcavelos, Portugal","latlon":"38.690165,-9.331557","url":"#/landing-point/carcavelos-portugal"},{"landing_point_id":5944,"id":"conil-spain","name":"Conil, Spain","latlon":"36.276567,-6.087222","url":"#/landing-point/conil-spain"},{"landing_point_id":4180,"id":"dakar-senegal","name":"Dakar, Senegal","latlon":"14.686599,-17.451914","url":"#/landing-point/dakar-senegal"},{"landing_point_id":5722,"id":"el-mdano-canary-islands-spain","name":"El Médano, Canary Islands, Spain","latlon":"28.046652,-16.538584","url":"#/landing-point/el-mdano-canary-islands-spain"},{"landing_point_id":3347,"id":"fortaleza-brazil","name":"Fortaleza, Brazil","latlon":"-3.718836,-38.542968","url":"#/landing-point/fortaleza-brazil"},{"landing_point_id":3330,"id":"las-toninas-argentina","name":"Las Toninas, Argentina","latlon":"-36.472532,-56.695487","url":"#/landing-point/las-toninas-argentina"},{"landing_point_id":4257,"id":"praia-cape-verde","name":"Praia, Cape Verde","latlon":"14.923013,-23.521247","url":"#/landing-point/praia-cape-verde"}],"length":"8,500 km","rfs":"2000 February","owners":"Embratel,  Deutsche Telekom,  Telecom Italia Sparkle,  Telecom Argentina,  Telxius,  Portugal Telecom,  Orange,  Telefónica Larga Distancia de Puerto Rico,  AT&T,  BICS,  KT,  Singtel,  Tata Communications,  Verizon,  BT,  Orange Polska","url":null,"notes":null}
,{"id":"atlas-offshore","name":"Atlas Offshore","cable_id":1512,"landing_points":[{"landing_point_id":5910,"id":"asilah-morocco","name":"Asilah, Morocco","latlon":"35.470781,-6.035757","url":"#/landing-point/asilah-morocco"},{"landing_point_id":3210,"id":"marseille-france","name":"Marseille, France","latlon":"43.293165,5.372623","url":"#/landing-point/marseille-france"}],"length":"1,634 km","rfs":"2007 July","owners":"Maroc Telecom","url":"https://www.iam.ma","notes":null}
,{"id":"aurora-cable-system","name":"AURORA Cable System","cable_id":1924,"landing_points":[{"landing_point_id":8722,"id":"balboa-panama","name":"Balboa, Panama","latlon":"8.950030,-79.566679","url":"#/landing-point/balboa-panama"},{"landing_point_id":3842,"id":"cancn-mexico","name":"Cancún, Mexico","latlon":"21.095666,-86.767567","url":"#/landing-point/cancn-mexico"},{"landing_point_id":5693,"id":"cartagena-colombia","name":"Cartagena, Colombia","latlon":"10.387016,-75.505683","url":"#/landing-point/cartagena-colombia"},{"landing_point_id":8918,"id":"manta-ecuador","name":"Manta, Ecuador","latlon":"-0.950014,-80.716190","url":"#/landing-point/manta-ecuador"},{"landing_point_id":5928,"id":"maria-chiquita-panama","name":"Maria Chiquita, Panama","latlon":"9.437554,-79.753544","url":"#/landing-point/maria-chiquita-panama"},{"landing_point_id":5848,"id":"puerto-barrios-guatemala","name":"Puerto Barrios, Guatemala","latlon":"15.727175,-88.597162","url":"#/landing-point/puerto-barrios-guatemala"},{"landing_point_id":3779,"id":"sarasota-fl-united-states","name":"Sarasota, FL, United States","latlon":"27.338876,-82.539627","url":"#/landing-point/sarasota-fl-united-states"}],"length":"5,500 km","rfs":"2021 Q3","owners":"FP Telecommunications","url":"http://fptelecoms.com/","notes":null}
,{"id":"australia-japan-cable-ajc","name":"Australia-Japan Cable (AJC)","cable_id":1102,"landing_points":[{"landing_point_id":5887,"id":"maruyama-japan","name":"Maruyama, Japan","latlon":"35.037517,139.816956","url":"#/landing-point/maruyama-japan"},{"landing_point_id":5778,"id":"oxford-falls-australia","name":"Oxford Falls, Australia","latlon":"-33.737377,151.245076","url":"#/landing-point/oxford-falls-australia"},{"landing_point_id":5779,"id":"paddington-australia","name":"Paddington, Australia","latlon":"-33.882128,151.228670","url":"#/landing-point/paddington-australia"},{"landing_point_id":5883,"id":"shima-japan","name":"Shima, Japan","latlon":"34.336834,136.874380","url":"#/landing-point/shima-japan"},{"landing_point_id":3251,"id":"tanguisson-point-gu-united-states","name":"Tanguisson Point, GU, United States","latlon":"13.549100,144.809337","url":"#/landing-point/tanguisson-point-gu-united-states"},{"landing_point_id":5972,"id":"tumon-bay-gu-united-states","name":"Tumon Bay, GU, United States","latlon":"13.513590,144.800548","url":"#/landing-point/tumon-bay-gu-united-states"}],"length":"12,700 km","rfs":"2001 December","owners":"Softbank Corp,  Telstra,  Verizon,  AT&T,  NTT","url":"http://www.ajcable.com","notes":null}
,{"id":"australia-papua-new-guinea-2-apng-2","name":"Australia-Papua New Guinea-2 (APNG-2)","cable_id":1527,"landing_points":[{"landing_point_id":8350,"id":"ela-beach-papua-new-guinea","name":"Ela Beach, Papua New Guinea","latlon":"-9.480235,147.156406","url":"#/landing-point/ela-beach-papua-new-guinea"},{"landing_point_id":3030,"id":"sydney-australia","name":"Sydney, Australia","latlon":"-33.869872,151.206990","url":"#/landing-point/sydney-australia"}],"length":"1,800 km","rfs":"2006","owners":"Telikom Papua New Guinea,  Telstra","url":"http://www.telikompng.com.pg","notes":null}
,{"id":"australia-singapore-cable-asc","name":"Australia-Singapore Cable (ASC)","cable_id":1683,"landing_points":[{"landing_point_id":14605,"id":"anyer-indonesia","name":"Anyer, Indonesia","latlon":"-6.073694,105.883916","url":"#/landing-point/anyer-indonesia"},{"landing_point_id":17023,"id":"flying-fish-cove-christmas-island","name":"Flying Fish Cove, Christmas Island","latlon":"-10.437363,105.697075","url":"#/landing-point/flying-fish-cove-christmas-island"},{"landing_point_id":3239,"id":"perth-australia","name":"Perth, Australia","latlon":"-31.953442,115.857227","url":"#/landing-point/perth-australia"},{"landing_point_id":9135,"id":"tanah-merah-singapore","name":"Tanah Merah, Singapore","latlon":"1.327255,103.946588","url":"#/landing-point/tanah-merah-singapore"}],"length":"4,600 km","rfs":"2018 September","owners":"Vocus Communications","url":"https://www.australiasingaporecable.com","notes":null}
,{"id":"avassa","name":"Avassa","cable_id":1872,"landing_points":[{"landing_point_id":14840,"id":"chindini-comoros","name":"Chindini, Comoros","latlon":"-11.923495,43.489097","url":"#/landing-point/chindini-comoros"},{"landing_point_id":9134,"id":"mamoudzou-mayotte","name":"Mamoudzou, Mayotte","latlon":"-12.783309,45.233286","url":"#/landing-point/mamoudzou-mayotte"},{"landing_point_id":4227,"id":"moroni-comoros","name":"Moroni, Comoros","latlon":"-11.700693,43.243394","url":"#/landing-point/moroni-comoros"},{"landing_point_id":14841,"id":"mutsamudu-comoros","name":"Mutsamudu, Comoros","latlon":"-12.166659,44.400034","url":"#/landing-point/mutsamudu-comoros"}],"length":"260 km","rfs":"2016 November","owners":"Comoros Telecom,  STOI","url":null,"notes":null}
,{"id":"azerbaijan-turkmenistan","name":"Azerbaijan-Turkmenistan","cable_id":2103,"landing_points":[{"landing_point_id":18076,"id":"siyazan-azerbaijan","name":"Siyazan, Azerbaijan","latlon":"41.075393,49.112410","url":"#/landing-point/siyazan-azerbaijan"},{"landing_point_id":18077,"id":"turkmenbashi-turkmenistan","name":"Turkmenbashi, Turkmenistan","latlon":"40.003421,52.962432","url":"#/landing-point/turkmenbashi-turkmenistan"}],"length":"300 km","rfs":"2021 Q4","owners":"Azertelecom,  Turkmentelecom","url":null,"notes":null}
,{"id":"azores-fiber-optic-system-afos","name":"Azores Fiber Optic System (AFOS)","cable_id":1801,"landing_points":[{"landing_point_id":14836,"id":"angra-do-heroismo-portugal","name":"Angra do Heroismo, Portugal","latlon":"38.658524,-27.215825","url":"#/landing-point/angra-do-heroismo-portugal"},{"landing_point_id":14659,"id":"faial-portugal","name":"Faial, Portugal","latlon":"38.525101,-28.647563","url":"#/landing-point/faial-portugal"},{"landing_point_id":14658,"id":"graciosa-portugal","name":"Graciosa, Portugal","latlon":"39.011026,-27.963481","url":"#/landing-point/graciosa-portugal"},{"landing_point_id":5945,"id":"ponta-delgada-portugal","name":"Ponta Delgada, Portugal","latlon":"37.739213,-25.668756","url":"#/landing-point/ponta-delgada-portugal"},{"landing_point_id":14834,"id":"sao-mateus-portugal","name":"Sao Mateus, Portugal","latlon":"38.432291,-28.461235","url":"#/landing-point/sao-mateus-portugal"},{"landing_point_id":14833,"id":"velas-portugal","name":"Velas, Portugal","latlon":"38.683841,-28.213188","url":"#/landing-point/velas-portugal"},{"landing_point_id":14835,"id":"vila-do-porto-portugal","name":"Vila do Porto, Portugal","latlon":"36.956767,-25.141266","url":"#/landing-point/vila-do-porto-portugal"}],"length":"1,100 km","rfs":"1998 July","owners":"Portugal Telecom","url":null,"notes":null}
,{"id":"bahamas-2","name":"Bahamas 2","cable_id":1069,"landing_points":[{"landing_point_id":5783,"id":"eight-mile-rock-bahamas","name":"Eight-Mile Rock, Bahamas","latlon":"26.539621,-78.802861","url":"#/landing-point/eight-mile-rock-bahamas"},{"landing_point_id":4230,"id":"nassau-bahamas","name":"Nassau, Bahamas","latlon":"25.067039,-77.340252","url":"#/landing-point/nassau-bahamas"},{"landing_point_id":3813,"id":"vero-beach-fl-united-states","name":"Vero Beach, FL, United States","latlon":"27.638388,-80.394267","url":"#/landing-point/vero-beach-fl-united-states"}],"length":"470 km","rfs":"1997 June","owners":"AT&T,  Telefonica,  Verizon","url":null,"notes":null}
,{"id":"bahamas-domestic-submarine-network-bdsni","name":"Bahamas Domestic Submarine Network (BDSNi)","cable_id":1510,"landing_points":[{"landing_point_id":5784,"id":"cat-island-bahamas","name":"Cat Island, Bahamas","latlon":"24.403330,-75.525898","url":"#/landing-point/cat-island-bahamas"},{"landing_point_id":10360,"id":"clarence-town-bahamas","name":"Clarence Town, Bahamas","latlon":"23.098338,-74.966181","url":"#/landing-point/clarence-town-bahamas"},{"landing_point_id":10364,"id":"cockburn-town-bahamas","name":"Cockburn Town, Bahamas","latlon":"24.052537,-74.530244","url":"#/landing-point/cockburn-town-bahamas"},{"landing_point_id":5782,"id":"crooked-island-bahamas","name":"Crooked Island, Bahamas","latlon":"22.629711,-74.194990","url":"#/landing-point/crooked-island-bahamas"},{"landing_point_id":10361,"id":"duncan-town-bahamas","name":"Duncan Town, Bahamas","latlon":"22.183263,-75.733466","url":"#/landing-point/duncan-town-bahamas"},{"landing_point_id":10358,"id":"fresh-creek-bahamas","name":"Fresh Creek, Bahamas","latlon":"24.689805,-77.844610","url":"#/landing-point/fresh-creek-bahamas"},{"landing_point_id":10359,"id":"george-town-bahamas","name":"George Town, Bahamas","latlon":"23.516551,-75.788007","url":"#/landing-point/george-town-bahamas"},{"landing_point_id":10357,"id":"governors-harbor-bahamas","name":"Governors Harbor, Bahamas","latlon":"25.196116,-76.240643","url":"#/landing-point/governors-harbor-bahamas"},{"landing_point_id":5785,"id":"hawksbill-bahamas","name":"Hawksbill, Bahamas","latlon":"26.516904,-78.736846","url":"#/landing-point/hawksbill-bahamas"},{"landing_point_id":9581,"id":"matthew-town-bahamas","name":"Matthew Town, Bahamas","latlon":"20.950512,-73.683076","url":"#/landing-point/matthew-town-bahamas"},{"landing_point_id":10362,"id":"mayaguana-bahamas","name":"Mayaguana, Bahamas","latlon":"22.401561,-73.064131","url":"#/landing-point/mayaguana-bahamas"},{"landing_point_id":4230,"id":"nassau-bahamas","name":"Nassau, Bahamas","latlon":"25.067039,-77.340252","url":"#/landing-point/nassau-bahamas"},{"landing_point_id":10363,"id":"port-nelson-bahamas","name":"Port Nelson, Bahamas","latlon":"23.652147,-74.840546","url":"#/landing-point/port-nelson-bahamas"},{"landing_point_id":3878,"id":"port-au-prince-haiti","name":"Port-au-Prince, Haiti","latlon":"18.542689,-72.343135","url":"#/landing-point/port-au-prince-haiti"},{"landing_point_id":5788,"id":"sandy-point-bahamas","name":"Sandy Point, Bahamas","latlon":"26.025205,-77.399529","url":"#/landing-point/sandy-point-bahamas"}],"length":"2,817 km","rfs":"2006","owners":"Bahamas Telecommunications Company,  Teleco","url":"http://www.btcbahamas.com","notes":null}
,{"id":"bahamas-internet-cable-system-bics","name":"Bahamas Internet Cable System (BICS)","cable_id":1232,"landing_points":[{"landing_point_id":3563,"id":"boca-raton-fl-united-states","name":"Boca Raton, FL, United States","latlon":"26.350327,-80.088945","url":"#/landing-point/boca-raton-fl-united-states"},{"landing_point_id":5786,"id":"caves-point-bahamas","name":"Caves Point, Bahamas","latlon":"25.068455,-77.452996","url":"#/landing-point/caves-point-bahamas"},{"landing_point_id":8355,"id":"crown-haven-bahamas","name":"Crown Haven, Bahamas","latlon":"26.912509,-77.821954","url":"#/landing-point/crown-haven-bahamas"},{"landing_point_id":5787,"id":"current-bahamas","name":"Current, Bahamas","latlon":"25.407834,-76.787664","url":"#/landing-point/current-bahamas"},{"landing_point_id":5785,"id":"hawksbill-bahamas","name":"Hawksbill, Bahamas","latlon":"26.516904,-78.736846","url":"#/landing-point/hawksbill-bahamas"},{"landing_point_id":8354,"id":"riding-point-bahamas","name":"Riding Point, Bahamas","latlon":"26.616745,-78.245879","url":"#/landing-point/riding-point-bahamas"},{"landing_point_id":5788,"id":"sandy-point-bahamas","name":"Sandy Point, Bahamas","latlon":"26.025205,-77.399529","url":"#/landing-point/sandy-point-bahamas"},{"landing_point_id":8357,"id":"spanish-river-park-fl-united-states","name":"Spanish River Park, FL, United States","latlon":"26.378061,-80.067704","url":"#/landing-point/spanish-river-park-fl-united-states"}],"length":"1,100 km","rfs":"2001 July","owners":"Caribbean Crossings","url":"http://www.cablebahamas.com/","notes":null}
,{"id":"balalink","name":"Balalink","cable_id":1696,"landing_points":[{"landing_point_id":4723,"id":"palma-spain","name":"Palma, Spain","latlon":"39.552322,2.605254","url":"#/landing-point/palma-spain"},{"landing_point_id":3066,"id":"valencia-spain","name":"Valencia, Spain","latlon":"39.468314,-0.376971","url":"#/landing-point/valencia-spain"}],"length":"274 km","rfs":"2001 October","owners":"IslaLink","url":"http://www.islalink.es","notes":null}
,{"id":"balok","name":"BALOK","cable_id":1867,"landing_points":[{"landing_point_id":16516,"id":"senggigi-indonesia","name":"Senggigi, Indonesia","latlon":"-8.485460,116.047266","url":"#/landing-point/senggigi-indonesia"},{"landing_point_id":16515,"id":"seraya-indonesia","name":"Seraya, Indonesia","latlon":"-8.386266,115.746680","url":"#/landing-point/seraya-indonesia"}],"length":"60 km","rfs":"2016 February","owners":"XL Axiata","url":null,"notes":null}
,{"id":"baltic-sea-submarine-cable","name":"Baltic Sea Submarine Cable","cable_id":1624,"landing_points":[{"landing_point_id":3064,"id":"helsinki-finland","name":"Helsinki, Finland","latlon":"60.171075,24.932490","url":"#/landing-point/helsinki-finland"},{"landing_point_id":3063,"id":"stockholm-sweden","name":"Stockholm, Sweden","latlon":"59.332208,18.062852","url":"#/landing-point/stockholm-sweden"},{"landing_point_id":3089,"id":"tallinn-estonia","name":"Tallinn, Estonia","latlon":"59.436200,24.752399","url":"#/landing-point/tallinn-estonia"}],"length":"1,042 km","rfs":"2000","owners":"CITIC Telecom International","url":"https://www.citictel.com/","notes":null}
,{"id":"baltica","name":"Baltica","cable_id":1199,"landing_points":[{"landing_point_id":5820,"id":"gedser-denmark","name":"Gedser, Denmark","latlon":"54.576351,11.928968","url":"#/landing-point/gedser-denmark"},{"landing_point_id":5933,"id":"kolobrzeg-poland","name":"Kolobrzeg, Poland","latlon":"54.172347,15.574865","url":"#/landing-point/kolobrzeg-poland"},{"landing_point_id":5822,"id":"pedersker-denmark","name":"Pedersker, Denmark","latlon":"55.030928,14.992150","url":"#/landing-point/pedersker-denmark"},{"landing_point_id":5954,"id":"ystad-sweden","name":"Ystad, Sweden","latlon":"55.431331,13.828284","url":"#/landing-point/ystad-sweden"}],"length":"437 km","rfs":"1997 March","owners":"Telia Carrier,  Orange Polska,  TDC Group,  Telenor,  Slovak Telekom,  Ukrtelecom","url":null,"notes":null}
,{"id":"bass-strait-1","name":"Bass Strait-1","cable_id":1472,"landing_points":[{"landing_point_id":7813,"id":"boat-harbour-tasmania-australia","name":"Boat Harbour, Tasmania, Australia","latlon":"-40.950874,145.623790","url":"#/landing-point/boat-harbour-tasmania-australia"},{"landing_point_id":10799,"id":"sandy-point-australia","name":"Sandy Point, Australia","latlon":"-38.820187,146.119688","url":"#/landing-point/sandy-point-australia"}],"length":"241 km","rfs":"1995","owners":"Telstra","url":null,"notes":null}
,{"id":"bass-strait-2","name":"Bass Strait-2","cable_id":1492,"landing_points":[{"landing_point_id":7860,"id":"inverloch-australia","name":"Inverloch, Australia","latlon":"-38.633444,145.729454","url":"#/landing-point/inverloch-australia"},{"landing_point_id":7861,"id":"stanley-australia","name":"Stanley, Australia","latlon":"-40.760371,145.294102","url":"#/landing-point/stanley-australia"}],"length":"239 km","rfs":"2003","owners":"Telstra","url":null,"notes":null}
,{"id":"basslink","name":"Basslink","cable_id":1742,"landing_points":[{"landing_point_id":10796,"id":"four-mile-bluff-australia","name":"Four Mile Bluff, Australia","latlon":"-41.033272,146.850156","url":"#/landing-point/four-mile-bluff-australia"},{"landing_point_id":10797,"id":"mcgaurans-beach-australia","name":"McGaurans Beach, Australia","latlon":"-38.443624,147.071250","url":"#/landing-point/mcgaurans-beach-australia"}],"length":"298 km","rfs":"2005 November","owners":"Basslink Telecoms","url":null,"notes":null}
,{"id":"batam-dumai-melaka-bdm-cable-system","name":"Batam Dumai Melaka (BDM) Cable System","cable_id":1648,"landing_points":[{"landing_point_id":5862,"id":"batam-indonesia","name":"Batam, Indonesia","latlon":"1.134726,103.962506","url":"#/landing-point/batam-indonesia"},{"landing_point_id":7311,"id":"dumai-indonesia","name":"Dumai, Indonesia","latlon":"1.665316,101.447565","url":"#/landing-point/dumai-indonesia"},{"landing_point_id":6300,"id":"melaka-malaysia","name":"Melaka, Malaysia","latlon":"2.273177,102.220905","url":"#/landing-point/melaka-malaysia"}],"length":"353 km","rfs":"2009 November","owners":"Moratelindo,  Telekom Malaysia","url":"http://www.moratelindo.co.id","notes":null}
,{"id":"batam-rengit-cable-system-brcs","name":"Batam-Rengit Cable System (BRCS)","cable_id":1601,"landing_points":[{"landing_point_id":8970,"id":"rengit-malaysia","name":"Rengit, Malaysia","latlon":"1.677133,103.147662","url":"#/landing-point/rengit-malaysia"},{"landing_point_id":15731,"id":"tanjung-pinang-indonesia","name":"Tanjung Pinang, Indonesia","latlon":"1.083334,104.483331","url":"#/landing-point/tanjung-pinang-indonesia"}],"length":"64 km","rfs":"2007 October","owners":"XL Axiata","url":"http://www.xl.co.id","notes":null}
,{"id":"batam-sarawak-internet-cable-system-basics","name":"Batam Sarawak Internet Cable System (BaSICS)","cable_id":2014,"landing_points":[{"landing_point_id":17376,"id":"kg-buntai-malaysia","name":"Kg Buntai, Malaysia","latlon":"1.675082,110.293631","url":"#/landing-point/kg-buntai-malaysia"},{"landing_point_id":9096,"id":"tanjung-bemban-indonesia","name":"Tanjung Bemban, Indonesia","latlon":"1.173202,104.133111","url":"#/landing-point/tanjung-bemban-indonesia"}],"length":"762 km","rfs":"2020 July","owners":"PP Telecommunication Sdn Bhd,  XL Axiata","url":"http://www.pptelecom.com.my","notes":null}
,{"id":"batam-singapore-cable-system-bscs","name":"Batam Singapore Cable System (BSCS)","cable_id":1785,"landing_points":[{"landing_point_id":5862,"id":"batam-indonesia","name":"Batam, Indonesia","latlon":"1.134726,103.962506","url":"#/landing-point/batam-indonesia"},{"landing_point_id":3029,"id":"singapore-singapore","name":"Singapore, Singapore","latlon":"1.293661,103.853033","url":"#/landing-point/singapore-singapore"}],"length":"73 km","rfs":"2009","owners":"Telkom Indonesia","url":null,"notes":null}
,{"id":"bay-of-bengal-gateway-bbg","name":"Bay of Bengal Gateway (BBG)","cable_id":1735,"landing_points":[{"landing_point_id":8947,"id":"barka-oman","name":"Barka, Oman","latlon":"23.679429,58.004324","url":"#/landing-point/barka-oman"},{"landing_point_id":4191,"id":"chennai-india","name":"Chennai, India","latlon":"13.063480,80.243083","url":"#/landing-point/chennai-india"},{"landing_point_id":5962,"id":"fujairah-united-arab-emirates","name":"Fujairah, United Arab Emirates","latlon":"25.121690,56.333720","url":"#/landing-point/fujairah-united-arab-emirates"},{"landing_point_id":3212,"id":"mmbai-india","name":"Mmbai, India","latlon":"19.075794,72.875899","url":"#/landing-point/mmbai-india"},{"landing_point_id":3307,"id":"penang-malaysia","name":"Penang, Malaysia","latlon":"5.353645,100.362996","url":"#/landing-point/penang-malaysia"},{"landing_point_id":14621,"id":"ratmalana-sri-lanka","name":"Ratmalana, Sri Lanka","latlon":"6.820392,79.889275","url":"#/landing-point/ratmalana-sri-lanka"}],"length":"8,100 km","rfs":"2016 Q1","owners":"Vodafone,  Telekom Malaysia,  Omantel,  Reliance Jio Infocom,  Dialog Axiata,  Etisalat,  AT&T,  China Telecom,  Telstra","url":"https://www.bayofbengalgateway.com","notes":null}
,{"id":"bay-to-bay-express-btobe-cable-system","name":"Bay to Bay Express (BtoBE) Cable System","cable_id":1969,"landing_points":[{"landing_point_id":5940,"id":"changi-north-singapore","name":"Changi North, Singapore","latlon":"1.389047,103.987017","url":"#/landing-point/changi-north-singapore"},{"landing_point_id":6011,"id":"cherating-malaysia","name":"Cherating, Malaysia","latlon":"4.130232,103.393658","url":"#/landing-point/cherating-malaysia"},{"landing_point_id":5856,"id":"chung-hom-kok-china","name":"Chung Hom Kok, China","latlon":"22.222106,114.203077","url":"#/landing-point/chung-hom-kok-china"},{"landing_point_id":5748,"id":"grover-beach-ca-united-states","name":"Grover Beach, CA, United States","latlon":"35.120635,-120.621420","url":"#/landing-point/grover-beach-ca-united-states"}],"length":"15,393 km","rfs":"2022","owners":"China Mobile,  Facebook,  Amazon Web Services","url":null,"notes":null}
,{"id":"bcs-east-west-interlink","name":"BCS East-West Interlink","cable_id":1222,"landing_points":[{"landing_point_id":10365,"id":"katthammarsvik-sweden","name":"Katthammarsvik, Sweden","latlon":"57.431037,18.845273","url":"#/landing-point/katthammarsvik-sweden"},{"landing_point_id":5311,"id":"sventoji-lithuania","name":"Sventoji, Lithuania","latlon":"56.028291,21.082382","url":"#/landing-point/sventoji-lithuania"}],"length":"218 km","rfs":"1997 November","owners":"Telia Carrier","url":null,"notes":null}
,{"id":"bcs-east","name":"BCS East","cable_id":1611,"landing_points":[{"landing_point_id":5310,"id":"liepaja-latvia","name":"Liepaja, Latvia","latlon":"56.508186,21.011288","url":"#/landing-point/liepaja-latvia"},{"landing_point_id":5311,"id":"sventoji-lithuania","name":"Sventoji, Lithuania","latlon":"56.028291,21.082382","url":"#/landing-point/sventoji-lithuania"}],"length":"97.8 km","rfs":"1995","owners":"Telia Carrier","url":null,"notes":null}
,{"id":"bcs-north---phase-1","name":"BCS North - Phase 1","cable_id":1609,"landing_points":[{"landing_point_id":7694,"id":"hanko-finland","name":"Hanko, Finland","latlon":"59.823211,22.968221","url":"#/landing-point/hanko-finland"},{"landing_point_id":9104,"id":"haradsholm-finland","name":"Haradsholm, Finland","latlon":"60.300970,22.302108","url":"#/landing-point/haradsholm-finland"},{"landing_point_id":3064,"id":"helsinki-finland","name":"Helsinki, Finland","latlon":"60.171075,24.932490","url":"#/landing-point/helsinki-finland"},{"landing_point_id":5830,"id":"mariehamn-finland","name":"Mariehamn, Finland","latlon":"60.113836,19.937851","url":"#/landing-point/mariehamn-finland"},{"landing_point_id":5952,"id":"stavsnas-sweden","name":"Stavsnas, Sweden","latlon":"59.292779,18.688328","url":"#/landing-point/stavsnas-sweden"}],"length":"513 km","rfs":"1998","owners":"Telia Carrier","url":null,"notes":null}
,{"id":"bcs-north---phase-2","name":"BCS North - Phase 2","cable_id":1610,"landing_points":[{"landing_point_id":3064,"id":"helsinki-finland","name":"Helsinki, Finland","latlon":"60.171075,24.932490","url":"#/landing-point/helsinki-finland"},{"landing_point_id":4552,"id":"kotka-finland","name":"Kotka, Finland","latlon":"60.501043,26.883563","url":"#/landing-point/kotka-finland"},{"landing_point_id":9102,"id":"logi-russia","name":"Logi, Russia","latlon":"59.799883,28.499871","url":"#/landing-point/logi-russia"}],"length":"280.4 km","rfs":"2000","owners":"Telia Carrier","url":null,"notes":null}
,{"id":"berytar","name":"BERYTAR","cable_id":1321,"landing_points":[{"landing_point_id":3862,"id":"beirut-lebanon","name":"Beirut, Lebanon","latlon":"33.892474,35.485195","url":"#/landing-point/beirut-lebanon"},{"landing_point_id":6047,"id":"saida-lebanon","name":"Saida, Lebanon","latlon":"33.450189,35.386269","url":"#/landing-point/saida-lebanon"},{"landing_point_id":6030,"id":"tartous-syria","name":"Tartous, Syria","latlon":"34.891704,35.897792","url":"#/landing-point/tartous-syria"},{"landing_point_id":6046,"id":"trablous-lebanon","name":"Trablous, Lebanon","latlon":"34.439422,35.859120","url":"#/landing-point/trablous-lebanon"}],"length":"134 km","rfs":"1997 April","owners":"Syrian Telecommunications Establishment,  Lebanese Ministry of Telecommunications","url":null,"notes":null}
,{"id":"bharat-lanka-cable-system","name":"Bharat Lanka Cable System","cable_id":1356,"landing_points":[{"landing_point_id":5949,"id":"mt-lavinia-sri-lanka","name":"Mt. Lavinia, Sri Lanka","latlon":"6.832697,79.866716","url":"#/landing-point/mt-lavinia-sri-lanka"},{"landing_point_id":7678,"id":"tuticorine-india","name":"Tuticorine, India","latlon":"8.802203,78.145135","url":"#/landing-point/tuticorine-india"}],"length":"325 km","rfs":"2006 June","owners":"Bharat Sanchar Nigam Ltd. (BSNL),  Sri Lanka Telecom","url":null,"notes":null}
,{"id":"bicentenario","name":"Bicentenario","cable_id":1633,"landing_points":[{"landing_point_id":3330,"id":"las-toninas-argentina","name":"Las Toninas, Argentina","latlon":"-36.472532,-56.695487","url":"#/landing-point/las-toninas-argentina"},{"landing_point_id":5963,"id":"maldonado-uruguay","name":"Maldonado, Uruguay","latlon":"-34.900389,-54.950175","url":"#/landing-point/maldonado-uruguay"}],"length":"250 km","rfs":"2011 December","owners":"Antel Uruguay,  Telecom Argentina","url":null,"notes":null}
,{"id":"bkk-digitek","name":"BKK Digitek","cable_id":2088,"landing_points":[{"landing_point_id":4538,"id":"bergen-norway","name":"Bergen, Norway","latlon":"60.390703,5.332743","url":"#/landing-point/bergen-norway"},{"landing_point_id":5923,"id":"krst-norway","name":"Kårstø, Norway","latlon":"59.279266,5.524381","url":"#/landing-point/krst-norway"},{"landing_point_id":3132,"id":"stavanger-norway","name":"Stavanger, Norway","latlon":"58.970831,5.730790","url":"#/landing-point/stavanger-norway"}],"length":"210 km","rfs":"2020 Q2","owners":"BKK Digitek","url":"https://www.bkk.no","notes":null}
,{"id":"bluemed","name":"BlueMed","cable_id":2051,"landing_points":[{"landing_point_id":3117,"id":"genoa-italy","name":"Genoa, Italy","latlon":"44.410340,8.938894","url":"#/landing-point/genoa-italy"},{"landing_point_id":3177,"id":"palermo-italy","name":"Palermo, Italy","latlon":"38.121500,13.358362","url":"#/landing-point/palermo-italy"}],"length":"1,000 km","rfs":"2021","owners":"Telecom Italia Sparkle","url":"http://www.telecomitaliasparkle.it","notes":null}
,{"id":"bodo-rost-cable","name":"Bodo-Rost Cable","cable_id":1950,"landing_points":[{"landing_point_id":10225,"id":"bod-norway","name":"Bodø, Norway","latlon":"67.286000,14.400073","url":"#/landing-point/bod-norway"},{"landing_point_id":17145,"id":"rst-norway","name":"Røst, Norway","latlon":"67.502565,12.070118","url":"#/landing-point/rst-norway"}],"length":"109 km","rfs":"2016","owners":"Telenor","url":null,"notes":null}
,{"id":"boracay-palawan-submarine-cable-system","name":"Boracay-Palawan Submarine Cable System","cable_id":1781,"landing_points":[{"landing_point_id":9385,"id":"coron-philippines","name":"Coron, Philippines","latlon":"12.004960,120.200682","url":"#/landing-point/coron-philippines"},{"landing_point_id":7841,"id":"san-jose-philippines","name":"San Jose, Philippines","latlon":"12.362626,121.050095","url":"#/landing-point/san-jose-philippines"},{"landing_point_id":14655,"id":"taytay-philippines","name":"Taytay, Philippines","latlon":"10.819609,119.500389","url":"#/landing-point/taytay-philippines"}],"length":"332 km","rfs":"2013 June","owners":"Globe Telecom","url":null,"notes":null}
,{"id":"boriken-submarine-cable-system-bscs","name":"Boriken Submarine Cable System (BSCS)","cable_id":2044,"landing_points":[{"landing_point_id":17570,"id":"aguadilla-pr-united-states","name":"Aguadilla, PR, United States","latlon":"18.427503,-67.154857","url":"#/landing-point/aguadilla-pr-united-states"},{"landing_point_id":13397,"id":"frederiksted-virgin-islands-u-s-","name":"Frederiksted, Virgin Islands (U.S.)","latlon":"17.712477,-64.881530","url":"#/landing-point/frederiksted-virgin-islands-u-s-"},{"landing_point_id":17572,"id":"humacao-pr-united-states","name":"Humacao, PR, United States","latlon":"18.117762,-65.781261","url":"#/landing-point/humacao-pr-united-states"},{"landing_point_id":17573,"id":"macao-beach-dominican-republic","name":"Macao Beach, Dominican Republic","latlon":"18.649122,-68.358079","url":"#/landing-point/macao-beach-dominican-republic"},{"landing_point_id":17571,"id":"ponce-pr-united-states","name":"Ponce, PR, United States","latlon":"17.982655,-66.626610","url":"#/landing-point/ponce-pr-united-states"}],"length":"670 km","rfs":"2023 Q4","owners":"Blackburn Technologies,  LLC.","url":"http://blackburn-pr.com","notes":null}
,{"id":"botnia","name":"Botnia","cable_id":1271,"landing_points":[{"landing_point_id":6004,"id":"ume-sweden","name":"Umeå, Sweden","latlon":"63.825870,20.262948","url":"#/landing-point/ume-sweden"},{"landing_point_id":5052,"id":"vaasa-finland","name":"Vaasa, Finland","latlon":"63.095194,21.616366","url":"#/landing-point/vaasa-finland"}],"length":"93 km","rfs":"1994","owners":"Telia Carrier","url":null,"notes":null}
,{"id":"brazilian-festoon","name":"Brazilian Festoon","cable_id":1888,"landing_points":[{"landing_point_id":3356,"id":"aracaj-brazil","name":"Aracajú, Brazil","latlon":"-10.909604,-37.074805","url":"#/landing-point/aracaj-brazil"},{"landing_point_id":16690,"id":"atafona-brazil","name":"Atafona, Brazil","latlon":"-21.631157,-41.027245","url":"#/landing-point/atafona-brazil"},{"landing_point_id":4590,"id":"ilhus-brazil","name":"Ilhéus, Brazil","latlon":"-14.787972,-39.047704","url":"#/landing-point/ilhus-brazil"},{"landing_point_id":3351,"id":"joo-pessoa-brazil","name":"João Pessoa, Brazil","latlon":"-7.115295,-34.861037","url":"#/landing-point/joo-pessoa-brazil"},{"landing_point_id":3387,"id":"maca-brazil","name":"Macaé, Brazil","latlon":"-22.371806,-41.785643","url":"#/landing-point/maca-brazil"},{"landing_point_id":3344,"id":"macei-brazil","name":"Maceió, Brazil","latlon":"-9.666465,-35.734962","url":"#/landing-point/macei-brazil"},{"landing_point_id":3354,"id":"natal-brazil","name":"Natal, Brazil","latlon":"-5.794836,-35.211183","url":"#/landing-point/natal-brazil"},{"landing_point_id":5493,"id":"porto-seguro-brazil","name":"Porto Seguro, Brazil","latlon":"-16.451081,-39.064697","url":"#/landing-point/porto-seguro-brazil"},{"landing_point_id":3352,"id":"recife-brazil","name":"Recife, Brazil","latlon":"-8.055333,-34.871974","url":"#/landing-point/recife-brazil"},{"landing_point_id":3242,"id":"rio-de-janeiro-brazil","name":"Rio de Janeiro, Brazil","latlon":"-22.903397,-43.209568","url":"#/landing-point/rio-de-janeiro-brazil"},{"landing_point_id":3342,"id":"salvador-brazil","name":"Salvador, Brazil","latlon":"-12.969979,-38.504541","url":"#/landing-point/salvador-brazil"},{"landing_point_id":16689,"id":"sitio-brazil","name":"Sitio, Brazil","latlon":"-11.846664,-37.570508","url":"#/landing-point/sitio-brazil"},{"landing_point_id":5506,"id":"so-mateus-brazil","name":"São Mateus, Brazil","latlon":"-18.716705,-39.859130","url":"#/landing-point/so-mateus-brazil"},{"landing_point_id":3343,"id":"vitria-brazil","name":"Vitória, Brazil","latlon":"-20.294024,-40.301659","url":"#/landing-point/vitria-brazil"}],"length":"2,543 km","rfs":"1996","owners":"Embratel","url":"http://www.embratel.com.br","notes":null}
,{"id":"brusa","name":"BRUSA","cable_id":1873,"landing_points":[{"landing_point_id":3347,"id":"fortaleza-brazil","name":"Fortaleza, Brazil","latlon":"-3.718836,-38.542968","url":"#/landing-point/fortaleza-brazil"},{"landing_point_id":3242,"id":"rio-de-janeiro-brazil","name":"Rio de Janeiro, Brazil","latlon":"-22.903397,-43.209568","url":"#/landing-point/rio-de-janeiro-brazil"},{"landing_point_id":4262,"id":"san-juan-pr-united-states","name":"San Juan, PR, United States","latlon":"18.465833,-66.106664","url":"#/landing-point/san-juan-pr-united-states"},{"landing_point_id":4862,"id":"virginia-beach-va-united-states","name":"Virginia Beach, VA, United States","latlon":"36.755009,-76.059198","url":"#/landing-point/virginia-beach-va-united-states"}],"length":"11,000 km","rfs":"2018 August","owners":"Telxius","url":"http://www.telxius.com","notes":null}
,{"id":"bt-highlands-and-islands-submarine-cable-system","name":"BT Highlands and Islands Submarine Cable System","cable_id":1827,"landing_points":[{"landing_point_id":15840,"id":"achnaba-united-kingdom","name":"Achnaba, United Kingdom","latlon":"56.019416,-5.365787","url":"#/landing-point/achnaba-united-kingdom"},{"landing_point_id":15871,"id":"aikerness-united-kingdom","name":"Aikerness , United Kingdom","latlon":"59.350457,-2.959147","url":"#/landing-point/aikerness-united-kingdom"},{"landing_point_id":15874,"id":"ardbeg-point-united-kingdom","name":"Ardbeg Point, United Kingdom","latlon":"55.858589,-5.063590","url":"#/landing-point/ardbeg-point-united-kingdom"},{"landing_point_id":15876,"id":"ardgour-united-kingdom","name":"Ardgour, United Kingdom","latlon":"56.721565,-5.233658","url":"#/landing-point/ardgour-united-kingdom"},{"landing_point_id":15857,"id":"ardmair-united-kingdom","name":"Ardmair, United Kingdom","latlon":"57.934076,-5.196207","url":"#/landing-point/ardmair-united-kingdom"},{"landing_point_id":15842,"id":"ardnacross-united-kingdom","name":"Ardnacross, United Kingdom","latlon":"55.476546,-5.533414","url":"#/landing-point/ardnacross-united-kingdom"},{"landing_point_id":15845,"id":"ardneil-bay-united-kingdom","name":"Ardneil Bay, United Kingdom","latlon":"55.693049,-4.889371","url":"#/landing-point/ardneil-bay-united-kingdom"},{"landing_point_id":15863,"id":"ardvasar-united-kingdom","name":"Ardvasar, United Kingdom","latlon":"57.059370,-5.906460","url":"#/landing-point/ardvasar-united-kingdom"},{"landing_point_id":15875,"id":"ardyne-point-united-kingdom","name":"Ardyne Point, United Kingdom","latlon":"55.869417,-5.019986","url":"#/landing-point/ardyne-point-united-kingdom"},{"landing_point_id":15868,"id":"balla-united-kingdom","name":"Balla, United Kingdom","latlon":"57.081525,-7.312173","url":"#/landing-point/balla-united-kingdom"},{"landing_point_id":15870,"id":"bay-of-tuquoy-united-kingdom","name":"Bay of Tuquoy, United Kingdom","latlon":"59.279767,-2.939519","url":"#/landing-point/bay-of-tuquoy-united-kingdom"},{"landing_point_id":15841,"id":"blackwaterfoot-united-kingdom","name":"Blackwaterfoot, United Kingdom","latlon":"55.501948,-5.332096","url":"#/landing-point/blackwaterfoot-united-kingdom"},{"landing_point_id":15858,"id":"branahuie-bay-united-kingdom","name":"Branahuie Bay, United Kingdom","latlon":"58.209064,-6.310757","url":"#/landing-point/branahuie-bay-united-kingdom"},{"landing_point_id":15866,"id":"calgary-united-kingdom","name":"Calgary, United Kingdom","latlon":"56.582124,-6.272378","url":"#/landing-point/calgary-united-kingdom"},{"landing_point_id":15873,"id":"coilleag-united-kingdom","name":"Coilleag, United Kingdom","latlon":"57.073615,-7.302212","url":"#/landing-point/coilleag-united-kingdom"},{"landing_point_id":15856,"id":"corran-united-kingdom","name":"Corran, United Kingdom","latlon":"56.722529,-5.245377","url":"#/landing-point/corran-united-kingdom"},{"landing_point_id":15844,"id":"corrie-united-kingdom","name":"Corrie, United Kingdom","latlon":"55.643648,-5.141422","url":"#/landing-point/corrie-united-kingdom"},{"landing_point_id":15850,"id":"craighouse-united-kingdom","name":"Craighouse, United Kingdom","latlon":"55.833674,-5.953824","url":"#/landing-point/craighouse-united-kingdom"},{"landing_point_id":15843,"id":"down-craig-united-kingdom","name":"Down Craig, United Kingdom","latlon":"55.780159,-4.900455","url":"#/landing-point/down-craig-united-kingdom"},{"landing_point_id":15854,"id":"duart-bay-united-kingdom","name":"Duart Bay, United Kingdom","latlon":"56.455842,-5.669351","url":"#/landing-point/duart-bay-united-kingdom"},{"landing_point_id":15861,"id":"dunvegan-united-kingdom","name":"Dunvegan, United Kingdom","latlon":"57.436323,-6.581655","url":"#/landing-point/dunvegan-united-kingdom"},{"landing_point_id":15847,"id":"feolin-ferry-united-kingdom","name":"Feolin Ferry, United Kingdom","latlon":"55.846748,-6.089908","url":"#/landing-point/feolin-ferry-united-kingdom"},{"landing_point_id":15855,"id":"ganavan-bay-united-kingdom","name":"Ganavan Bay, United Kingdom","latlon":"56.437763,-5.475797","url":"#/landing-point/ganavan-bay-united-kingdom"},{"landing_point_id":15849,"id":"glenbarr-united-kingdom","name":"Glenbarr, United Kingdom","latlon":"55.565498,-5.697574","url":"#/landing-point/glenbarr-united-kingdom"},{"landing_point_id":15838,"id":"kilchatten-bay-united-kingdom","name":"Kilchatten Bay, United Kingdom","latlon":"55.751839,-5.028092","url":"#/landing-point/kilchatten-bay-united-kingdom"},{"landing_point_id":15852,"id":"kilchoan-ferry-united-kingdom","name":"Kilchoan Ferry, United Kingdom","latlon":"56.688569,-6.093960","url":"#/landing-point/kilchoan-ferry-united-kingdom"},{"landing_point_id":15848,"id":"lagavulin-united-kingdom","name":"Lagavulin, United Kingdom","latlon":"55.636116,-6.125406","url":"#/landing-point/lagavulin-united-kingdom"},{"landing_point_id":15837,"id":"largs-united-kingdom","name":"Largs, United Kingdom","latlon":"55.793342,-4.867301","url":"#/landing-point/largs-united-kingdom"},{"landing_point_id":15859,"id":"leverburgh-united-kingdom","name":"Leverburgh, United Kingdom","latlon":"57.769403,-7.008364","url":"#/landing-point/leverburgh-united-kingdom"},{"landing_point_id":15860,"id":"lochmaddy-united-kingdom","name":"Lochmaddy, United Kingdom","latlon":"57.603693,-7.163345","url":"#/landing-point/lochmaddy-united-kingdom"},{"landing_point_id":15867,"id":"ludag-united-kingdom","name":"Ludag, United Kingdom","latlon":"57.105537,-7.328139","url":"#/landing-point/ludag-united-kingdom"},{"landing_point_id":15864,"id":"mallaigvaig-united-kingdom","name":"Mallaigvaig, United Kingdom","latlon":"57.008479,-5.820425","url":"#/landing-point/mallaigvaig-united-kingdom"},{"landing_point_id":15869,"id":"north-bay-united-kingdom","name":"North Bay, United Kingdom","latlon":"57.025288,-7.449477","url":"#/landing-point/north-bay-united-kingdom"},{"landing_point_id":15851,"id":"ormsary-united-kingdom","name":"Ormsary, United Kingdom","latlon":"55.891682,-5.614566","url":"#/landing-point/ormsary-united-kingdom"},{"landing_point_id":15839,"id":"otter-ferry-united-kingdom","name":"Otter Ferry, United Kingdom","latlon":"56.008284,-5.321207","url":"#/landing-point/otter-ferry-united-kingdom"},{"landing_point_id":15846,"id":"port-askaig-united-kingdom","name":"Port Askaig, United Kingdom","latlon":"55.847737,-6.106314","url":"#/landing-point/port-askaig-united-kingdom"},{"landing_point_id":15872,"id":"portachur-point-united-kingdom","name":"Portachur Point, United Kingdom","latlon":"55.742769,-4.943863","url":"#/landing-point/portachur-point-united-kingdom"},{"landing_point_id":15862,"id":"sandwick-village-united-kingdom","name":"Sandwick Village, United Kingdom","latlon":"57.366694,-7.274136","url":"#/landing-point/sandwick-village-united-kingdom"},{"landing_point_id":15865,"id":"scarinish-united-kingdom","name":"Scarinish, United Kingdom","latlon":"56.503791,-6.808511","url":"#/landing-point/scarinish-united-kingdom"},{"landing_point_id":15853,"id":"tobermory-united-kingdom","name":"Tobermory, United Kingdom","latlon":"56.621845,-6.070279","url":"#/landing-point/tobermory-united-kingdom"}],"length":"402 km","rfs":"2014 December","owners":"BT","url":null,"notes":null}
,{"id":"bt-mt-1","name":"BT-MT-1","cable_id":1752,"landing_points":[{"landing_point_id":13373,"id":"ballyhornan-united-kingdom","name":"Ballyhornan, United Kingdom","latlon":"54.302047,-5.559390","url":"#/landing-point/ballyhornan-united-kingdom"},{"landing_point_id":13374,"id":"groudle-bay-isle-of-man","name":"Groudle Bay, Isle of Man","latlon":"54.166976,-4.423893","url":"#/landing-point/groudle-bay-isle-of-man"},{"landing_point_id":13372,"id":"peel-isle-of-man","name":"Peel, Isle of Man","latlon":"54.222445,-4.691422","url":"#/landing-point/peel-isle-of-man"},{"landing_point_id":13375,"id":"silecroft-beach-united-kingdom","name":"Silecroft Beach, United Kingdom","latlon":"54.210628,-3.357145","url":"#/landing-point/silecroft-beach-united-kingdom"}],"length":"80 km","rfs":"1990","owners":"BT,  Manx Telecom","url":null,"notes":null}
,{"id":"bugio","name":"BUGIO","cable_id":1443,"landing_points":[{"landing_point_id":14331,"id":"carcavelos-portugal","name":"Carcavelos, Portugal","latlon":"38.690165,-9.331557","url":"#/landing-point/carcavelos-portugal"},{"landing_point_id":5934,"id":"sesimbra-portugal","name":"Sesimbra, Portugal","latlon":"38.442691,-9.102748","url":"#/landing-point/sesimbra-portugal"}],"length":"73 km","rfs":"1996 July","owners":"Portugal Telecom","url":null,"notes":null}
,{"id":"c-lion1","name":"C-Lion1","cable_id":1816,"landing_points":[{"landing_point_id":7694,"id":"hanko-finland","name":"Hanko, Finland","latlon":"59.823211,22.968221","url":"#/landing-point/hanko-finland"},{"landing_point_id":3064,"id":"helsinki-finland","name":"Helsinki, Finland","latlon":"60.171075,24.932490","url":"#/landing-point/helsinki-finland"},{"landing_point_id":3130,"id":"rostock-germany","name":"Rostock, Germany","latlon":"54.078890,12.132386","url":"#/landing-point/rostock-germany"}],"length":"1,172 km","rfs":"2016 March","owners":"Cinia Group Oy","url":"https://www.cinia.fi/en/","notes":null}
,{"id":"cabo-verde-telecom-domestic-submarine-cable-phase-1","name":"Cabo Verde Telecom Domestic Submarine Cable Phase 1","cable_id":2024,"landing_points":[{"landing_point_id":17400,"id":"murdeira-cape-verde","name":"Murdeira, Cape Verde","latlon":"16.677113,-22.935310","url":"#/landing-point/murdeira-cape-verde"},{"landing_point_id":4257,"id":"praia-cape-verde","name":"Praia, Cape Verde","latlon":"14.923184,-23.521210","url":"#/landing-point/praia-cape-verde"},{"landing_point_id":17399,"id":"sal-rei-cape-verde","name":"Sal Rei, Cape Verde","latlon":"16.177175,-22.919038","url":"#/landing-point/sal-rei-cape-verde"},{"landing_point_id":17401,"id":"sao-pedro-cape-verde","name":"Sao Pedro, Cape Verde","latlon":"16.823427,-25.060809","url":"#/landing-point/sao-pedro-cape-verde"},{"landing_point_id":17392,"id":"tarrafalsao-nicolau-cape-verde","name":"Tarrafal—Sao Nicolau, Cape Verde","latlon":"16.565883,-24.357160","url":"#/landing-point/tarrafalsao-nicolau-cape-verde"}],"length":"n.a.","rfs":"1997","owners":"Cabo Verde Telecom (CVT)","url":"http://www.cvtelecom.cv","notes":null}
,{"id":"cabo-verde-telecom-domestic-submarine-cable-phase-2","name":"Cabo Verde Telecom Domestic Submarine Cable Phase 2","cable_id":2025,"landing_points":[{"landing_point_id":17390,"id":"porto-novosanto-antao-cape-verde","name":"Porto Novo—Santo Antao, Cape Verde","latlon":"17.019203,-25.059442","url":"#/landing-point/porto-novosanto-antao-cape-verde"},{"landing_point_id":17401,"id":"sao-pedro-cape-verde","name":"Sao Pedro, Cape Verde","latlon":"16.823427,-25.060809","url":"#/landing-point/sao-pedro-cape-verde"},{"landing_point_id":17396,"id":"tarrafalsantiago-cape-verde","name":"Tarrafal—Santiago, Cape Verde","latlon":"15.276846,-23.751069","url":"#/landing-point/tarrafalsantiago-cape-verde"}],"length":"n.a.","rfs":"2002","owners":"Cabo Verde Telecom (CVT)","url":"http://www.cvtelecom.cv","notes":null}
,{"id":"cabo-verde-telecom-domestic-submarine-cable-phase-3","name":"Cabo Verde Telecom Domestic Submarine Cable Phase 3","cable_id":2026,"landing_points":[{"landing_point_id":17395,"id":"nova-sintra-cape-verde","name":"Nova Sintra, Cape Verde","latlon":"14.872988,-24.695404","url":"#/landing-point/nova-sintra-cape-verde"},{"landing_point_id":17390,"id":"porto-novosanto-antao-cape-verde","name":"Porto Novo—Santo Antao, Cape Verde","latlon":"17.019203,-25.059442","url":"#/landing-point/porto-novosanto-antao-cape-verde"},{"landing_point_id":4257,"id":"praia-cape-verde","name":"Praia, Cape Verde","latlon":"14.923184,-23.521210","url":"#/landing-point/praia-cape-verde"},{"landing_point_id":17399,"id":"sal-rei-cape-verde","name":"Sal Rei, Cape Verde","latlon":"16.177175,-22.919038","url":"#/landing-point/sal-rei-cape-verde"},{"landing_point_id":17394,"id":"sao-filipe-cape-verde","name":"Sao Filipe, Cape Verde","latlon":"14.897146,-24.500922","url":"#/landing-point/sao-filipe-cape-verde"},{"landing_point_id":17401,"id":"sao-pedro-cape-verde","name":"Sao Pedro, Cape Verde","latlon":"16.823427,-25.060809","url":"#/landing-point/sao-pedro-cape-verde"},{"landing_point_id":17396,"id":"tarrafalsantiago-cape-verde","name":"Tarrafal—Santiago, Cape Verde","latlon":"15.276846,-23.751069","url":"#/landing-point/tarrafalsantiago-cape-verde"},{"landing_point_id":17393,"id":"vila-do-maio-cape-verde","name":"Vila do Maio, Cape Verde","latlon":"15.138357,-23.209785","url":"#/landing-point/vila-do-maio-cape-verde"}],"length":"n.a.","rfs":"2011","owners":"Cabo Verde Telecom (CVT)","url":"http://www.cvtelecom.cv","notes":null}
,{"id":"cadmos","name":"CADMOS","cable_id":1305,"landing_points":[{"landing_point_id":3862,"id":"beirut-lebanon","name":"Beirut, Lebanon","latlon":"33.892474,35.485195","url":"#/landing-point/beirut-lebanon"},{"landing_point_id":5812,"id":"pentaskhinos-cyprus","name":"Pentaskhinos, Cyprus","latlon":"34.828484,33.603555","url":"#/landing-point/pentaskhinos-cyprus"}],"length":"230 km","rfs":"1995 September","owners":"Cyta,  Lebanese Ministry of Telecommunications,  AT&T,  Orange,  Telekom Austria,  Syrian Telecommunications Establishment,  Telecom Italia Sparkle,  Tata Communications,  Deutsche Telekom","url":null,"notes":null}
,{"id":"cam-ring","name":"CAM Ring","cable_id":1800,"landing_points":[{"landing_point_id":5935,"id":"funchal-portugal","name":"Funchal, Portugal","latlon":"32.646869,-16.908945","url":"#/landing-point/funchal-portugal"},{"landing_point_id":5945,"id":"ponta-delgada-portugal","name":"Ponta Delgada, Portugal","latlon":"37.739213,-25.668756","url":"#/landing-point/ponta-delgada-portugal"},{"landing_point_id":7784,"id":"porto-santo-portugal","name":"Porto Santo, Portugal","latlon":"33.047321,-16.347666","url":"#/landing-point/porto-santo-portugal"}],"length":"1,120 km","rfs":"2003","owners":"Portugal Telecom","url":null,"notes":null}
,{"id":"canalink","name":"Canalink","cable_id":1666,"landing_points":[{"landing_point_id":5720,"id":"alta-vista-canary-islands-spain","name":"Alta Vista, Canary Islands, Spain","latlon":"27.959396,-15.398741","url":"#/landing-point/alta-vista-canary-islands-spain"},{"landing_point_id":5910,"id":"asilah-morocco","name":"Asilah, Morocco","latlon":"35.470781,-6.035757","url":"#/landing-point/asilah-morocco"},{"landing_point_id":17556,"id":"granadilla-canary-islands-spain","name":"Granadilla, Canary Islands, Spain","latlon":"28.059115,-16.518052","url":"#/landing-point/granadilla-canary-islands-spain"},{"landing_point_id":16017,"id":"gimar-canary-islands-spain","name":"Güimar, Canary Islands, Spain","latlon":"28.310580,-16.412559","url":"#/landing-point/gimar-canary-islands-spain"},{"landing_point_id":10400,"id":"rota-spain","name":"Rota, Spain","latlon":"36.626274,-6.363003","url":"#/landing-point/rota-spain"},{"landing_point_id":7776,"id":"santa-cruz-de-la-palma-canary-islands-spain","name":"Santa Cruz de La Palma, Canary Islands, Spain","latlon":"28.663180,-17.765244","url":"#/landing-point/santa-cruz-de-la-palma-canary-islands-spain"},{"landing_point_id":16016,"id":"tinocas-canary-islands-spain","name":"Tinocas, Canary Islands, Spain","latlon":"28.134359,-15.487706","url":"#/landing-point/tinocas-canary-islands-spain"}],"length":"1,835 km","rfs":"2011","owners":"IT3","url":"http://www.canalink.tel/","notes":null}
,{"id":"candalta","name":"CANDALTA","cable_id":1446,"landing_points":[{"landing_point_id":7775,"id":"candelaria-canary-islands-spain","name":"Candelaria, Canary Islands, Spain","latlon":"28.355538,-16.371739","url":"#/landing-point/candelaria-canary-islands-spain"},{"landing_point_id":10726,"id":"el-goro-canary-islands-spain","name":"El Goro, Canary Islands, Spain","latlon":"27.999496,-15.699962","url":"#/landing-point/el-goro-canary-islands-spain"}],"length":"110 km","rfs":"1999","owners":"Telefonica","url":null,"notes":null}
,{"id":"cantat-3","name":"CANTAT-3","cable_id":1737,"landing_points":[{"landing_point_id":5818,"id":"blaabjerg-denmark","name":"Blaabjerg, Denmark","latlon":"55.751533,8.328970","url":"#/landing-point/blaabjerg-denmark"},{"landing_point_id":10780,"id":"south-arne-denmark","name":"South Arne, Denmark","latlon":"56.078291,4.228386","url":"#/landing-point/south-arne-denmark"},{"landing_point_id":3142,"id":"sylt-germany","name":"Sylt, Germany","latlon":"54.898506,8.383364","url":"#/landing-point/sylt-germany"},{"landing_point_id":5724,"id":"tjornuvik-faroe-islands","name":"Tjornuvik, Faroe Islands","latlon":"62.289921,-7.147231","url":"#/landing-point/tjornuvik-faroe-islands"},{"landing_point_id":10782,"id":"tyra-denmark","name":"Tyra, Denmark","latlon":"55.715608,4.748503","url":"#/landing-point/tyra-denmark"},{"landing_point_id":10781,"id":"valdemar-denmark","name":"Valdemar, Denmark","latlon":"55.804072,4.564323","url":"#/landing-point/valdemar-denmark"},{"landing_point_id":5858,"id":"vestmannaeyjar-iceland","name":"Vestmannaeyjar, Iceland","latlon":"63.437687,-20.267293","url":"#/landing-point/vestmannaeyjar-iceland"}],"length":"2,500 km","rfs":"1994 November","owners":"Shefa","url":"http://www.shefa.fo","notes":null}
,{"id":"caribbean-bermuda-u-s-cbus","name":"Caribbean-Bermuda U.S. (CBUS)","cable_id":1634,"landing_points":[{"landing_point_id":5793,"id":"st-davids-bermuda","name":"St. David’s, Bermuda","latlon":"32.312238,-64.769506","url":"#/landing-point/st-davids-bermuda"},{"landing_point_id":9589,"id":"tortola-virgin-islands-u-k-","name":"Tortola, Virgin Islands (U.K.)","latlon":"18.414784,-64.597241","url":"#/landing-point/tortola-virgin-islands-u-k-"}],"length":"1,600 km","rfs":"2009 October","owners":"C&W Networks","url":"http://www.cwnetworks.com/","notes":null}
,{"id":"caribbean-regional-communications-infrastructure-program-carcip","name":"Caribbean Regional Communications Infrastructure Program (CARCIP)","cable_id":2004,"landing_points":[{"landing_point_id":17318,"id":"bequia-saint-vincent-and-the-grenadines","name":"Bequia, Saint Vincent and the Grenadines","latlon":"12.997562,-61.244703","url":"#/landing-point/bequia-saint-vincent-and-the-grenadines"},{"landing_point_id":17320,"id":"canouan-saint-vincent-and-the-grenadines","name":"Canouan, Saint Vincent and the Grenadines","latlon":"12.699637,-61.338954","url":"#/landing-point/canouan-saint-vincent-and-the-grenadines"},{"landing_point_id":17322,"id":"carriacou-grenada","name":"Carriacou, Grenada","latlon":"12.473710,-61.478614","url":"#/landing-point/carriacou-grenada"},{"landing_point_id":17314,"id":"chateaubelair-saint-vincent-and-the-grenadines","name":"Chateaubelair, Saint Vincent and the Grenadines","latlon":"13.290921,-61.240834","url":"#/landing-point/chateaubelair-saint-vincent-and-the-grenadines"},{"landing_point_id":17316,"id":"conference-grenada","name":"Conference, Grenada","latlon":"12.161210,-61.606385","url":"#/landing-point/conference-grenada"},{"landing_point_id":4219,"id":"kingstown-saint-vincent-and-the-grenadines","name":"Kingstown, Saint Vincent and the Grenadines","latlon":"13.145438,-61.208253","url":"#/landing-point/kingstown-saint-vincent-and-the-grenadines"},{"landing_point_id":17319,"id":"mustique-saint-vincent-and-the-grenadines","name":"Mustique, Saint Vincent and the Grenadines","latlon":"12.877713,-61.187123","url":"#/landing-point/mustique-saint-vincent-and-the-grenadines"},{"landing_point_id":17315,"id":"owia-saint-vincent-and-the-grenadines","name":"Owia, Saint Vincent and the Grenadines","latlon":"13.373099,-61.142774","url":"#/landing-point/owia-saint-vincent-and-the-grenadines"},{"landing_point_id":17321,"id":"union-island-saint-vincent-and-the-grenadines","name":"Union Island, Saint Vincent and the Grenadines","latlon":"12.611405,-61.443177","url":"#/landing-point/union-island-saint-vincent-and-the-grenadines"}],"length":"225 km","rfs":"2019 June","owners":"Digicel","url":"https://www.digicelgroup.com","notes":null}
,{"id":"caucasus-cable-system","name":"Caucasus Cable System","cable_id":1563,"landing_points":[{"landing_point_id":9594,"id":"balchik-bulgaria","name":"Balchik, Bulgaria","latlon":"43.414344,28.167449","url":"#/landing-point/balchik-bulgaria"},{"landing_point_id":5530,"id":"poti-georgia","name":"Poti, Georgia","latlon":"42.150771,41.667614","url":"#/landing-point/poti-georgia"}],"length":"1,200 km","rfs":"2008 November","owners":"Caucasus Online","url":"http://www.co.ge/en/","notes":null}
,{"id":"cayman-jamaica-fiber-system","name":"Cayman-Jamaica Fiber System","cable_id":1068,"landing_points":[{"landing_point_id":6048,"id":"cayman-brac-cayman-islands","name":"Cayman Brac, Cayman Islands","latlon":"19.690332,-79.877641","url":"#/landing-point/cayman-brac-cayman-islands"},{"landing_point_id":5799,"id":"half-moon-bay-cayman-islands","name":"Half Moon Bay, Cayman Islands","latlon":"19.282959,-81.166776","url":"#/landing-point/half-moon-bay-cayman-islands"},{"landing_point_id":3272,"id":"kingston-jamaica","name":"Kingston, Jamaica","latlon":"17.992225,-76.792157","url":"#/landing-point/kingston-jamaica"}],"length":"870 km","rfs":"1997 June","owners":"C&W Networks","url":"http://www.cwnetworks.com/","notes":null}
,{"id":"ceiba-1","name":"Ceiba-1","cable_id":1699,"landing_points":[{"landing_point_id":9434,"id":"bata-equatorial-guinea","name":"Bata, Equatorial Guinea","latlon":"1.860067,9.768227","url":"#/landing-point/bata-equatorial-guinea"},{"landing_point_id":4224,"id":"malabo-equatorial-guinea","name":"Malabo, Equatorial Guinea","latlon":"3.749788,8.783364","url":"#/landing-point/malabo-equatorial-guinea"}],"length":"287 km","rfs":"2011 June","owners":"GITGE (Gestor de Infraestructuras de Telecomunicaciones de Guinea Ecuatorial)","url":"http://www.gitge.com","notes":null}
,{"id":"ceiba-2","name":"Ceiba-2","cable_id":1842,"landing_points":[{"landing_point_id":9434,"id":"bata-equatorial-guinea","name":"Bata, Equatorial Guinea","latlon":"1.860067,9.768227","url":"#/landing-point/bata-equatorial-guinea"},{"landing_point_id":10095,"id":"kribi-cameroon","name":"Kribi, Cameroon","latlon":"2.932918,9.910414","url":"#/landing-point/kribi-cameroon"},{"landing_point_id":4224,"id":"malabo-equatorial-guinea","name":"Malabo, Equatorial Guinea","latlon":"3.749788,8.783364","url":"#/landing-point/malabo-equatorial-guinea"}],"length":"290 km","rfs":"2017","owners":"GITGE (Gestor de Infraestructuras de Telecomunicaciones de Guinea Ecuatorial)","url":"http://www.gitge.com","notes":null}
,{"id":"celtic-norse","name":"Celtic Norse","cable_id":2041,"landing_points":[{"landing_point_id":17708,"id":"caithness-united-kingdom","name":"Caithness, United Kingdom","latlon":"58.568842,-3.794242","url":"#/landing-point/caithness-united-kingdom"},{"landing_point_id":10385,"id":"grindavik-iceland","name":"Grindavik, Iceland","latlon":"63.846195,-22.444795","url":"#/landing-point/grindavik-iceland"},{"landing_point_id":14732,"id":"killala-ireland","name":"Killala, Ireland","latlon":"54.206832,-9.232191","url":"#/landing-point/killala-ireland"},{"landing_point_id":17402,"id":"ysanden-norway","name":"Øysanden, Norway","latlon":"63.333488,10.216420","url":"#/landing-point/ysanden-norway"}],"length":"2,000 km","rfs":"2022 Q4","owners":"Eidsiva Energi,  NTE,  TrønderEnergi","url":"http://celticnorse.no","notes":null}
,{"id":"celtic","name":"Celtic","cable_id":1054,"landing_points":[{"landing_point_id":5863,"id":"kilmore-quay-ireland","name":"Kilmore Quay, Ireland","latlon":"52.174582,-6.584097","url":"#/landing-point/kilmore-quay-ireland"},{"landing_point_id":5742,"id":"sennen-cove-united-kingdom","name":"Sennen Cove, United Kingdom","latlon":"50.076060,-5.698746","url":"#/landing-point/sennen-cove-united-kingdom"}],"length":"275 km","rfs":"1994 August","owners":"BT,  eir,  Orange","url":null,"notes":null}
,{"id":"celtixconnect-1-cc-1","name":"CeltixConnect-1 (CC-1)","cable_id":1641,"landing_points":[{"landing_point_id":3077,"id":"dublin-ireland","name":"Dublin, Ireland","latlon":"53.348043,-6.248257","url":"#/landing-point/dublin-ireland"},{"landing_point_id":6035,"id":"holyhead-united-kingdom","name":"Holyhead, United Kingdom","latlon":"53.306039,-4.630387","url":"#/landing-point/holyhead-united-kingdom"}],"length":"131 km","rfs":"2012 January","owners":"Aqua Comms","url":"http://www.aquacomms.com","notes":null}
,{"id":"challenger-bermuda-1-cb-1","name":"Challenger Bermuda-1 (CB-1)","cable_id":1596,"landing_points":[{"landing_point_id":3580,"id":"charlestown-ri-united-states","name":"Charlestown, RI, United States","latlon":"41.411904,-71.645870","url":"#/landing-point/charlestown-ri-united-states"},{"landing_point_id":9069,"id":"paget-bermuda","name":"Paget, Bermuda","latlon":"32.280536,-64.788696","url":"#/landing-point/paget-bermuda"}],"length":"1,448 km","rfs":"2008 December","owners":"OneCommunications","url":"http://onecomm.bm","notes":null}
,{"id":"channel-islands-9-liberty-submarine-cable","name":"Channel Islands-9 Liberty Submarine Cable","cable_id":1784,"landing_points":[{"landing_point_id":14677,"id":"blackpool-sands-united-kingdom","name":"Blackpool Sands, United Kingdom","latlon":"50.318833,-3.610905","url":"#/landing-point/blackpool-sands-united-kingdom"},{"landing_point_id":10380,"id":"lancresse-bay-guernsey","name":"L'Ancresse Bay, Guernsey","latlon":"49.503392,-2.533464","url":"#/landing-point/lancresse-bay-guernsey"}],"length":"n.a.","rfs":"2008 June","owners":"JTGlobal","url":null,"notes":null}
,{"id":"chennai-andaman-nicobar-islands-cable","name":"Chennai-Andaman & Nicobar Islands Cable","cable_id":1861,"landing_points":[{"landing_point_id":17255,"id":"car-nicobar-india","name":"Car Nicobar, India","latlon":"9.177495,92.816442","url":"#/landing-point/car-nicobar-india"},{"landing_point_id":4191,"id":"chennai-india","name":"Chennai, India","latlon":"13.063480,80.243083","url":"#/landing-point/chennai-india"},{"landing_point_id":17257,"id":"great-nicobar-india","name":"Great Nicobar, India","latlon":"7.031330,93.927403","url":"#/landing-point/great-nicobar-india"},{"landing_point_id":17252,"id":"havelock-india","name":"Havelock, India","latlon":"11.976054,92.987560","url":"#/landing-point/havelock-india"},{"landing_point_id":17256,"id":"kamorta-india","name":"Kamorta, India","latlon":"8.172223,93.481407","url":"#/landing-point/kamorta-india"},{"landing_point_id":17254,"id":"little-andaman-india","name":"Little Andaman, India","latlon":"10.709038,92.597155","url":"#/landing-point/little-andaman-india"},{"landing_point_id":17251,"id":"long-island-india","name":"Long Island, India","latlon":"12.396488,92.935070","url":"#/landing-point/long-island-india"},{"landing_point_id":17253,"id":"port-blair-india","name":"Port Blair, India","latlon":"11.623368,92.726476","url":"#/landing-point/port-blair-india"},